_id,name,cust_code,latitude,longitude
5dcab4306f739341eacda585,DILIP OPTICALS,C2005D0224,15.60961228,73.826284
5de6147f921da363eed257dd,POSH OPTICIANS,C2001P0510,22.02328123,79.99999993
5de771de67566f664d0ab0af,SHREE OPTICAL,C2001S0614,16.9937282,73.29326671
5de7a3a567566f664d0ab0b1,I CARE OPTICIANS,C2001I0501,19.12057844,72.84928635
5de9084f67566f664d0ab0ba,YASH OPTICS,C2001Y0021,19.01709864,72.82254305
5dea013467566f664d0ab0c0,EYE-CON OPTICAL,C2021E0061,19.86525372,75.34911454
5dea060267566f664d0ab0c1,SUNAYAN OPTICS,C2001S0545,21.79930878,79.49999426
5dea107667566f664d0ab0c4,SAKSHI OPTICALS,C2021S0301,19.85552911,75.35074767
5dea12c467566f664d0ab0c6,VAMSEE KRISHNA OPTICALS,C2102V0014,14.45463101,79.98380877
5def3d355adab31c18cea6d8,4UG OPTIK,C200140001,13.02968447,77.57071584
5def3d355adab31c18cea6d9,AL FALAH EYE CARE,C2001A0210,19.18823942,72.81997517
5def3d355adab31c18cea6da,AMBAJI OPTICS AND CONTACT LENS CLINIC,C2001A0211,19.31314085,72.85579406
5def3d355adab31c18cea6db,ARPIT OPTICAL,C2001A0212,19.30680339,72.85184987
5def3d355adab31c18cea6dc,APNA OPTICS,C2001A0213,19.07305091,72.91659907
5def3d355adab31c18cea6dd,ARSHAD OPTICS,C2001A0214,19.18609031,72.81753
5def3d355adab31c18cea6df,ASHWINI OPTICALS,C2001A0216,19.28297232,72.86724038
5def3d355adab31c18cea6e0,AARTI OPTICS,C2001A0217,19.12075837,72.84844413
5def3d355adab31c18cea6e1,ARIHANT EYE CARE,C2001A0218,19.08755406,72.90360544
5def3d355adab31c18cea6e2,ALFA OPTICS,C2001A0219,19.12187185,72.84604054
5def3d355adab31c18cea6e3,ABDUL RAHIM,C2001A0220,19.18856684,72.82183629
5def3d355adab31c18cea6e4,A1 OPTICS,C2001A0221,19.12021731,72.84634497
5def3d355adab31c18cea6e5,AMRUT OPTICS,C2001A0222,19.12323715,72.84405939
5def3d355adab31c18cea6e6,AAKASH OPTICS,C2001A0223,19.16097839,72.93241672
5def3d355adab31c18cea6e7,AVNI OPTICS,C2001A0224,19.23222312,72.84677681
5def3d355adab31c18cea6e8,AHMEDI OPTICS,C2001A0225,19.08792287,72.88784947
5def3d355adab31c18cea6ea,ASIA OPTICALS,C2001A0227,19.0435505,72.8575214
5def3d355adab31c18cea6eb,ALFA OPTICS,C2001A0228,19.09329008,72.88518604
5def3d355adab31c18cea6ec,AARYA OPTICIAN,C2001A0229,19.30769822,73.17045338
5def3d355adab31c18cea6ed,ABHINANDAN OPTICS,C2001A0230,19.1948009,72.98857212
5def3d355adab31c18cea6ee,AARYA EYE VISION,C2001A0231,19.19690969,72.99142163
5def3d355adab31c18cea6ef,ARYAN OPTICS,C2001A0232,19.10111849,72.89227545
5def3d355adab31c18cea6f0,AMBE OPTICIANS,C2001A0233,19.22979473,72.85969902
5def3d355adab31c18cea6f1,ASIAN OPTICS,C2001A0234,19.23147349,72.85917096
5def3d355adab31c18cea6f2,ANUJ OPTICALS ,C2001A0236,19.19371072,72.95862794
5def3d355adab31c18cea6f3,BIJENDER RAUTELA,C2001B0105,19.41767057,72.82221448
5def3d355adab31c18cea6f4,BRIGHT VISION,C2001B0106,19.11868536,72.84592554
5def3d355adab31c18cea6f5,BHAVANI OPTICS,C2001B0107,19.11133678,72.92816173
5def3d355adab31c18cea6f6,BALAJI OPTICS,C2001B0108,20.23778591,75.51610049
5def3d355adab31c18cea6f7,BABUBHAI BHAWANJI,C2001B0109,20.75882608,76.98482551
5def3d355adab31c18cea6f8,BEVOOR EYE CARE,C2001B0110,19.42588886,72.82108326
5def3d355adab31c18cea6f9,CHASHMAGHAR,C2001C0127,19.06607454,72.87733421
5def3d355adab31c18cea6fa,CLEAR VISION,C2001C0128,19.07133821,72.87812848
5def3d355adab31c18cea6fb,CHAKSHU CONTACT LENSE CLINIC,C2001C0129,19.18687624,72.97351588
5def3d355adab31c18cea6fc,CMP OPTICS,C2001C0130,19.28407678,72.87499398
5def3d355adab31c18cea6fd,COMFORT VISION,C2001C0131,19.28648158,72.87757829
5def3d355adab31c18cea6fe,CHAUDHARY OPTICS,C2001C0132,19.09516983,72.89490268
5def3d355adab31c18cea6ff,COLOURS OPTICS,C2001C0133,19.22666731,72.82664817
5def3d355adab31c18cea700,DINESH,C2001D0147,19.045672,72.8409363
5def3d355adab31c18cea701,DRUSHTI OPTICIAN,C2001D0148,19.06301563,72.88254406
5def3d355adab31c18cea702,DIVINE OPTICS,C2001D0149,19.16040991,72.93209821
5def3d355adab31c18cea703,DEVANG OPTICS,C2001D0150,19.01889874,72.86354799
5def3d355adab31c18cea704,DEEPAK OPTICIANS,C2001D0151,19.06278906,72.88269695
5def3d355adab31c18cea705,DHARAM OPTICS,C2001D0152,19.046541,72.85214055
5def3d355adab31c18cea706,DINESH OPTICS,C2001D0153,19.27829994,72.86724038
5def3d355adab31c18cea707,DURGA OPTIC,C2001D0154,19.18736515,72.97618736
5def3d355adab31c18cea708,DR.ANAND OPTICS,C2001D0155,19.21332596,72.83894576
5def3d355adab31c18cea709,DIVYADRUSTI OPTICS ,C2001D0156,19.07931373,72.90928133
5def3d355adab31c18cea70a,DARSHAN OPTICS,C2001D0157,19.24165996,72.86731314
5def3d355adab31c18cea70b,DIAA OPTICS,C2001D0158,19.42197786,72.82393143
5def3d355adab31c18cea70c,DRISHTI OPTICALS,C2001D0159,19.18833125,72.99691714
5def3d355adab31c18cea70d,EYE ZONE OPTICS,C2001E0139,19.19709523,72.82076776
5def3d355adab31c18cea70e,EYECON OPTIC,C2001E0140,19.20904198,72.87304871
5def3d355adab31c18cea70f,EYE CARE OPTICS,C2001E0141,19.20176106,72.97220159
5def3d355adab31c18cea712,EYE KRAFT OPTICAL,C2001E0144,19.18991765,72.96898562
5def3d355adab31c18cea713,EYE SITE OPTICAL,C2001E0145,19.16101672,72.93244086
5def3d355adab31c18cea714,EYE SAFE OPTICS,C2001E0146,19.18728377,72.97725186
5def3d355adab31c18cea715,FINE VISION OPTIC,C2001F0029,19.17521828,72.9564473
5def3d355adab31c18cea716,FAME OPTICS,C2001F0030,19.20224486,72.97288153
5def3d355adab31c18cea717,FORAN OPTICS,C2001F0031,19.21359381,72.85579406
5def3d355adab31c18cea718,FOSTER VISION,C2001F0032,19.09703531,72.89502103
5def3d355adab31c18cea719,GALAXY VISION,C2001G0149,19.08652274,72.88717758
5def3d355adab31c18cea71a,GANDHI OPTIK,C2001G0150,19.20334006,72.84765556
5def3d355adab31c18cea71b,GAWDE & SONS OPTICS,C2001G0151,19.22900331,72.85361107
5def3d355adab31c18cea71c,GOLDEN EYE OPTICIANS,C2001G0152,19.18532084,72.82137897
5def3d355adab31c18cea71d,GRACE OPTIC PLUS,C2001G0153,19.28354924,72.86576349
5def3d355adab31c18cea71e,GORE OPTICIAN,C2001G0154,19.15706138,72.93443374
5def3d355adab31c18cea71f,GOLDEN EYE OPTICIANS,C2001G0155,19.28783571,72.85800956
5def3d355adab31c18cea720,GOKUL OPTICS,C2001G0156,19.17303986,72.86811579
5def3d355adab31c18cea721,GANESH OPTICIAN ,C2001G0157,19.08868582,72.90515576
5def3d355adab31c18cea722,GAVALI EYE CARE CENTER,C2001G0158,19.23950015,72.86458299
5def3d355adab31c18cea723,GANESH OPTICS,C2001G0159,19.18748453,72.99698219
5def3d355adab31c18cea724,GK OPTICS,C2001G0160,19.25477776,72.85467122
5def3d355adab31c18cea725,HARRY OPTICS,C2001H0060,19.20341858,72.83991806
5def3d355adab31c18cea726,HEMANT OPTICIANS,C2023H0006,19.08777965,72.90571567
5def3d355adab31c18cea727,HILCO OPTICS (BANDRA),C2001H0505,19.05550455,72.83569459
5def3d355adab31c18cea728,HEET OPTICIANS CONTACT LENS CLINIC,C2001H0063,19.09005995,72.90257916
5def3d355adab31c18cea729,HI VISION OPTICS,C2001H0064,19.08868994,72.90683482
5def3d355adab31c18cea72a,HI TEK OPTIKS,C2001H0065,19.40989014,72.82662235
5def3d355adab31c18cea72b,HARSHAD OPTICS M.G ROAD,C2001H0066,19.16324153,72.84028552
5def3d355adab31c18cea72c,HIMDHARA OPTICS ,C2001H0067,19.22345119,72.85684884
5def3d355adab31c18cea72d,INFY EYE CARE OPTICS &CONTACT CLINIC,C2001I0058,19.09345547,72.88239218
5def3d355adab31c18cea72e,IDEAL OPTICALS,C2001I0059,19.1363495,72.84770653
5def3d355adab31c18cea72f,JAIHIND OPTICS,C2001J0065,19.18300512,72.83828661
5def3d355adab31c18cea730,JANKI OPTICS,C2001J0066,19.05375681,72.88778979
5def3d355adab31c18cea731,J.K OPTICS,C2001J0067,19.04364463,72.84734745
5def3d355adab31c18cea732,J S OPTICAL,C2001J0068,19.22465451,72.86662783
5def3d355adab31c18cea733,JINI OPTICS NALLASOPARA,C2001J0069,19.41153733,72.82705855
5def3d355adab31c18cea734,KRISH OPTICS,C2001K0081,19.18926156,72.97169499
5def3d355adab31c18cea735,K GUJAR OPTICS,C2001K0082,19.16827473,72.96011355
5def3d355adab31c18cea736,KALPANA EYE CARE,C2001K0083,19.30867279,72.84980468
5def3d355adab31c18cea737,KAVYAMAEE OPTICARE,C2001K0084,19.18394655,72.97262136
5def3d355adab31c18cea738,KWALITY OPTICIANS,C2001K0085,19.19076848,72.97700644
5def3d355adab31c18cea739,K-STYLE VISION,C2001K0086,19.27380497,72.86908641
5def3d355adab31c18cea73a,KIRAN OPTICS,C2001K0087,19.21209565,72.86196616
5def3d355adab31c18cea73b,KRISH INTERNATIONAL,C2001K0088,19.12663484,72.83918548
5def3d355adab31c18cea73d,KRISHNA OPTICAL,C2001K0090,19.10106495,72.91171342
5def3d355adab31c18cea73e,K D EYE OPTICIANS,C2001K0091,19.20081404,72.86222667
5def3d355adab31c18cea73f,K.K OPTIC VISION,C2001K0092,19.18504345,72.97391552
5def3d355adab31c18cea740,KRISH OPTICS,C2001K0093,19.18809313,72.9781799
5def3d355adab31c18cea741,KETAN OPTICS ,C2001K0094,19.100725,72.91116558
5def3d355adab31c18cea742,KARNATAKA OPTICAL,C2001K0095,18.93501332,72.83419825
5def3d355adab31c18cea743,LOOK OPTICAL,C2001L0066,19.14377584,73.09360743
5def3d355adab31c18cea744,LOOK OPTICAL,C2001L0067,19.04445691,72.85246577
5def3d355adab31c18cea745,LUCKY OPTICAL,C2001L0068,19.1218709,72.84597717
5def3d355adab31c18cea746,LOOK OPTICAL,C2001L0069,19.30469822,72.85069786
5def3d355adab31c18cea747,LUCKY OPTICALS,C2001L0070,19.30409227,72.85021506
5def3d355adab31c18cea748,LOTUS EYE CARE,C2001L0071,19.41623688,72.82143664
5def3d355adab31c18cea749,LIBERTY OPTICALS,C2001L0072,19.12133839,72.846466
5def3d355adab31c18cea74a,LENS VIEW,C2001L0073,19.09327804,72.91229915
5def3d355adab31c18cea74b,MODERN OPTICAL,C2001M0169,19.10110867,72.89223857
5def3d355adab31c18cea74c,M B OPTICS,C2001M0170,19.19268955,72.87292399
5def3d355adab31c18cea74d,MAHAVIR OPTICALS,C2001M0171,19.31036751,72.85334922
5def3d355adab31c18cea74e,MARS OPTICAL,C2001M0172,19.30611865,72.85709493
5def3d355adab31c18cea74f,MEMON OPTIK,C2001M0173,19.03992292,72.84160048
5def3d355adab31c18cea750,MALVANKAR OPTICIANS,C2001M0174,19.16108132,72.93244857
5def3d355adab31c18cea751,MAHARASHTRA OPTICS,C2001M0175,19.06870814,72.87820358
5def3d355adab31c18cea752,MAHEK OPTICS,C2001M0176,19.22838346,72.82196201
5def3d355adab31c18cea753,MALWADKAR OPTICS,C2001M0177,19.19444532,72.98866566
5def3d355adab31c18cea755,MODERN OPTICS,C2001M0179,19.30795895,72.86170196
5def3d355adab31c18cea756,MODAK OPTICIANS,C2001M0180,21.93261122,79.83698163
5def3d355adab31c18cea757,MODAK OPTICIANS,C2001M0181,19.62391901,74.12157007
5def3d355adab31c18cea758,METRO VISION,C2001M0182,19.16111996,72.93245427
5def3d355adab31c18cea759,NAZAR OPTICS,C2001N0157,19.06425847,72.87606686
5def3d355adab31c18cea75a,NILESH OPTICS,C2001N0158,18.94686418,72.8288687
5def3d355adab31c18cea75b,NEW LOOK OPTICAL,C2001N0159,19.03975209,72.8453787
5def3d355adab31c18cea75c,NOOR OPTICS,C2001N0160,19.08480923,72.88082745
5def3d355adab31c18cea75d,NAYAN SUKH OPTICIANS,C2001N0161,19.04121949,72.85514329
5def3d355adab31c18cea75e,NILANJ OPTICS,C2001N0162,19.1614506,72.97074482
5def3d355adab31c18cea75f,NETRA OPTICS,C2001N0163,19.42583037,72.82075301
5def3d355adab31c18cea760,NEW CRYSTAL VISION OPTICAL& CONTACT LENSE,C2001N0164,19.09094139,72.91018825
5def3d355adab31c18cea761,NEW OPTICAL PALACE,C2001N0165,19.18114315,72.81756017
5def3d355adab31c18cea762,NIKHIL OPTICS,C2001N0166,19.23508895,72.9764301
5def3d355adab31c18cea763,NAVKAR OPTICALS,C2001N0167,19.22085552,72.84784433
5def3d355adab31c18cea764,NOOR OPTICIAN,C2001N0168,19.14323865,72.84301031
5def3d355adab31c18cea765,NATIONAL OPTICS,C2001N0169,19.04370484,72.85081957
5def3d355adab31c18cea766,NITISHA OPTICALS,C2001N0170,20.45461566,76.1571699
5def3d355adab31c18cea767,NOOR OPTICIAN,C2001N0171,19.09047913,72.89865676
5def3d355adab31c18cea768,NATIONAL EYE PLUS,C2001N0172,19.29062652,72.86834814
5def3d355adab31c18cea769,NEW EYECARE OPTICS,C2001N0173,19.03769739,72.85348333
5def3d355adab31c18cea76a,NEW VISION CARE,C2001N0174,19.29504635,72.86945555
5def3d355adab31c18cea76b,NANDGAONKAR OPTICS,C2001N0175,19.30770581,72.86280971
5def3d355adab31c18cea76d,NAINA OPTICAL GALLERY,C2001N0177,19.41474374,72.82477599
5def3d355adab31c18cea76e,NAINA OPTICS NALLASOPARA EAST,C2001N0178,19.42227351,72.82317504
5def3d355adab31c18cea76f,OPTICS FITTING CENTRE,C2001O0119,19.12186678,72.84593124
5def3d355adab31c18cea770,OPTIC STUDIO,C2001O0120,19.15036917,72.83146508
5def3d355adab31c18cea771,OPTICAL FASHION,C2001O0121,19.29641749,72.86502488
5def3d355adab31c18cea772,OPTICAL STOP,C2001O0122,19.21459933,72.82883819
5def3d355adab31c18cea773,OMKAR OPTICS,C2001O0123,19.27718625,72.86687125
5def3d355adab31c18cea774,OM OPTICIAN,C2001O0124,19.19569888,72.99180754
5def3d355adab31c18cea775,OPTICAL CASTLES,C2001O0125,19.30878828,72.85911731
5def3d355adab31c18cea776,OMKAR OPTICS ,C2001O0126,19.22460069,72.86690779
5def3d355adab31c18cea778,PERFECT OPTICIAN,C2001P0174,19.18772835,72.97289327
5def3d355adab31c18cea779,PERFECT VISION,C2001P0175,19.10600246,72.84179796
5def3d355adab31c18cea77a,PARSHWA OPTICAL,C2001P0176,19.30693533,72.8562383
5def3d355adab31c18cea77b,PREM EYE CARE,C2001P0177,19.39007391,73.53913173
5def3d355adab31c18cea77c,PALAK OPTICS,C2001P0178,19.4238412,72.81120904
5def3d355adab31c18cea77d,PEARL OPTIC,C2001P0179,19.30310438,72.86354799
5def3d355adab31c18cea77e,PAYAL OPTICAL,C2001P0180,19.20239431,72.97294557
5def3d355adab31c18cea77f,P & C OPTICS,C2001P0181,19.27380497,72.86908641
5def3d355adab31c18cea780,PLANET VISION EYEWARE,C2001P0182,19.28341442,73.42239529
5def3d355adab31c18cea781,PRASHANT OPTICIANS,C2001P0183,20.00189609,74.69470885
5def3d355adab31c18cea782,PALAK OPTICS,C2001P0184,19.0469213,72.86203858
5def3d355adab31c18cea783,PREFER OPTICS,C2001P0185,19.2286497,72.85508327
5def3d355adab31c18cea784,PRAGATI OPTICIAN,C2001P0186,19.27535858,72.86280971
5def3d355adab31c18cea785,PRIME VISION,C2001P0187,19.27784326,72.85874818
5def3d355adab31c18cea786,PRINCE OPTICAL,C2001P0188,19.16120705,72.93250792
5def3d355adab31c18cea787,PERFECT OPTICAL,C2001P0189,19.16111521,72.93243248
5def3d355adab31c18cea788,PALLAVI OPTICIANS,C2001P0190,19.41474374,72.82477599
5def3d355adab31c18cea789,PATIL OPTICIAN,C2001P0191,19.25568649,72.8646725
5def3d355adab31c18cea78a,PAYAL OPTICAL ,C2001P0192,19.16102843,72.92974323
5def3d355adab31c18cea78b,RAJU OPTICS,C2001R0183,19.18680658,72.97151662
5def3d355adab31c18cea78c,RIVON OPTICS,C2001R0184,19.06900759,72.87886743
5def3d355adab31c18cea78d,RIDDHI OPTICIAN,C2001R0185,19.09171542,72.91361846
5def3d355adab31c18cea78e,RIYA OPTICS,C2001R0186,19.17161385,72.95427606
5def3d355adab31c18cea78f,R K OPTICS,C2001R0187,19.21111291,72.85614844
5def3d355adab31c18cea790,RAJU OPTICS,C2001R0188,19.2351396,72.97672078
5def3d355adab31c18cea791,RAWOOL OPTICIAN,C2001R0189,19.19379684,72.87411254
5def3d355adab31c18cea792,RUDRA OPTICS,C2001R0190,19.15218145,72.94109803
5def3d355adab31c18cea793,RYDHAM OPTICS,C2001R0191,19.17287962,72.95565505
5def3d355adab31c18cea794,RAJ OPTICAL,C2001R0192,19.09319155,72.91230015
5def3d355adab31c18cea795,ROYAL OPTICS,C2001R0193,19.28578568,72.85911731
5def3d355adab31c18cea796,ROYAL OPTICIANS,C2001R0194,19.04857815,72.8583787
5def3d355adab31c18cea798,RONAK OPTICS,C2001R0196,19.20208877,72.97244601
5def3d355adab31c18cea799,RK OPTICS,C2001R0197,19.29540551,72.86945555
5def3d355adab31c18cea79a,RAJ OPTICIAN,C2001R0198,19.19278549,72.99065821
5def3d355adab31c18cea79b,ROSHNI OPTICAL ,C2001R0199,19.48774148,73.9210736
5def3d355adab31c18cea79c,RAHUL OPTICAL CO,C2001R0200,19.25054423,72.84726162
5def3d355adab31c18cea79d,SADGURU OPTICS,C2001S0500,19.30922146,72.8598167
5def3d355adab31c18cea79e,SELECTION OPTICS,C2001S0553,19.19660794,72.8723168
5def3d355adab31c18cea79f,SHREEYA OPTICS,C2001S0554,19.20317985,72.84543738
5def3d355adab31c18cea7a0,SHREE GANESH OPTICAL,C2001S0555,18.94703478,72.82882176
5def3d355adab31c18cea7a1,SOCIETY CHASMA GHAR,C2001S0556,19.06321306,72.88247701
5def3d355adab31c18cea7a2,SHREE SATERI OPTICS,C2001S0557,19.4318894,72.82333732
5def3d355adab31c18cea7a3,SHAMA OPTICS,C2001S0558,20.55594969,76.49576861
5def3d355adab31c18cea7a4,SPEX VISION,C2001S0559,19.19935946,72.97748085
5def3d355adab31c18cea7a5,SURBHI ENTERPRISE,C2001S0560,19.1897853,72.97699772
5def3d355adab31c18cea7a6,SHREYA OPTICS,C2001S0561,19.42260899,72.82455068
5def3d355adab31c18cea7a7,SAPNA SAGAR OPTICS,C2001S0562,19.2236633,72.85070959
5def3d355adab31c18cea7a8,SAAWARIYA OPTICALS,C2001S0563,19.29670577,72.8642866
5def3d355adab31c18cea7a9,SPECS-N-GLARE OPTICS,C2001S0564,19.20235347,72.97297575
5def3d355adab31c18cea7aa,SHOPPEE OPTICS,C2001S0565,19.42703884,72.82182153
5def3d355adab31c18cea7ab,SHREEJI ENTERPRISE,C2001S0566,18.97068417,72.84023255
5def3d355adab31c18cea7ac,SHIVANSH OPTICS,C2001S0567,19.22673601,72.85961118
5def3d355adab31c18cea7ad,SS OPTICAL,C2001S0568,19.11818547,72.84600634
5def3d355adab31c18cea7ae,"SHERRY, S OPTICS",C2001S0569,18.93458551,72.83494424
5def3d355adab31c18cea7af,SEE CLEAR OPTICAL,C2001S0570,19.20594202,73.24302189
5def3d355adab31c18cea7b0,SHWETA OPTICS,C2001S0571,19.18810009,72.82124955
5def3d355adab31c18cea7b1,SHARDA OPTIC,C2001S0572,19.12357832,72.84535959
5def3d355adab31c18cea7b2,SALMAN OPTICS,C2001S0573,19.14310879,72.84277763
5def3d355adab31c18cea7b3,STYLE OPTIC,C2001S0574,20.56303585,76.50491059
5def3d355adab31c18cea7b4,SHREE SAHAJ OLTICA,C2001S0575,19.22639601,72.8536731
5def3d355adab31c18cea7b5,SHREE SAMARTH OPTICIAN,C2001S0576,19.2263156,72.82736097
5def3d355adab31c18cea7b6,SAFE EYE OPTICS,C2001S0577,19.16100848,72.93243315
5def3d355adab31c18cea7b7,SHREE KRUPA OPTICS,C2001S0578,19.19522931,72.98949111
5def3d355adab31c18cea7b8,SHREE GANESH OPTICIANS,C2001S0579,19.16893185,72.95196265
5def3d355adab31c18cea7b9,SFO OPTICS,C2001S0580,19.276058,72.87757829
5def3d355adab31c18cea7ba,SAFE EYES OPTICS,C2001S0581,19.29008507,72.87019417
5def3d355adab31c18cea7bb,SHRADDHA OPTICS,C2001S0582,19.29422075,72.86834814
5def3d355adab31c18cea7bd,SHREE SAMARTH KRUPA EYE CARE,C2001S0584,19.42441636,72.81702071
5def3d355adab31c18cea7be,SAMARTH OPTICAL,C2001S0585,19.16313544,72.83917777
5def3d355adab31c18cea7bf,SAI DRISHTI OPTICIAN ,C2001S0586,19.08476139,72.90952675
5def3d355adab31c18cea7c0,SHARDDH OPTICAL HOME,C2001S0587,19.23437163,72.85835557
5def3d355adab31c18cea7c1,SHREE SWAMI SAMARTH OPTICS,C2001S0588,19.25518417,72.85794284
5def3d355adab31c18cea7c2,SHRI SAI OPTICS,C2001S0589,19.18338258,72.97967792
5def3d355adab31c18cea7c3,SURENDRA OPTICS,C2001S0590,19.0283107,72.84329865
5def3d355adab31c18cea7c4,SANGHVI OPTICS,C2001S0591,19.2019808,72.85680626
5def3d355adab31c18cea7c5,SAI SIDDHI OPTICIANS,C2001S0592,19.24215441,72.86698759
5def3d355adab31c18cea7c6,SHINDE OPTICIANS,C2001S0593,19.19271678,72.95801371
5def3d355adab31c18cea7c7,SAKHARKAR VISION CARE,C2001S0594,19.20046259,72.86192525
5def3d355adab31c18cea7c9,SIRAJ OPTICIAN ,C2001S0596,19.18777268,72.97790665
5def3d355adab31c18cea7ca,SANRAJ OPTICS,C2001S0597,19.16399495,72.93804165
5def3d355adab31c18cea7cb,TAJ OPTICS,C2001T0066,19.04044903,72.84117334
5def3d355adab31c18cea7cc,TAKSHILA OPTICS,C2001T0067,19.13013318,72.86830053
5def3d355adab31c18cea7cd,TAJ OPTICS,C2001T0069,21.89528946,79.74440552
5def3d355adab31c18cea7ce,TAJ OPTICS,C2001T0071,19.94227968,75.01751505
5def3d355adab31c18cea7cf,TAWAKKAL OPTICS,C2001T0072,19.0337315,72.88428985
5def3d355adab31c18cea7d0,THANE VISION OPTICS,C2001T0073,19.16098568,72.93244824
5def3d355adab31c18cea7d1,TRINETRA OPTICS,C2001T0074,19.21950559,72.82911345
5def3d355adab31c18cea7d2,TRINETRA OPTICIANS & CANTACT LENS CLINIC,C2001T0075,19.16118298,72.93245696
5def3d355adab31c18cea7d3,THAROLA ENTERPRISES,C2001T0076,19.1278281,72.84703162
5def3d355adab31c18cea7d4,THE EYE GALLERY,C2001T0078,19.21874419,72.84800157
5def3d355adab31c18cea7d6,VISION OPTICS,C2001V0212,19.06635498,72.87744284
5def3d355adab31c18cea7d7,VALUE EYE OPTICS,C2001V0214,19.30589684,72.86187228
5def3d355adab31c18cea7d8,V.K OPTICIAN,C2001V0215,19.06301373,72.88274791
5def3d355adab31c18cea7d9,VINNAY OPTICS,C2001V0216,19.30850699,72.85326507
5def3d355adab31c18cea7da,VIMALA OPTICALS,C2001V0217,19.30510831,72.85417031
5def3d355adab31c18cea7db,VISIONCRAFT,C2001V0211,13.02970047,77.57067259
5def3d355adab31c18cea7dc,VIJAY OPTICS & CONTACT LENS CLINIC,C2001V0219,19.15000336,72.93776672
5def3d355adab31c18cea7dd,VISION EYE CARE OPTICS,C2001V0220,19.22995523,72.8535001
5def3d355adab31c18cea7de,VAISHALI OPTICS,C2001V0221,19.22639854,72.85585642
5def3d355adab31c18cea7df,VISION EYE CARE,C2001V0222,19.16098156,72.93243181
5def3d355adab31c18cea7e0,VARSHA OPTICS,C2001V0223,19.2152645,72.82968409
5def3d355adab31c18cea7e1,VISION STUDIO,C2001V0224,19.20486236,72.84123234
5def3d355adab31c18cea7e2,VISHAL OPTICAL,C2001V0225,18.94844846,72.82889653
5def3d355adab31c18cea7e3,VISION EYE + OPTICAL STORE,C2001V0226,19.2818324,72.85911731
5def3d355adab31c18cea7e4,VATSAL OPTICS,C2001V0227,19.27952944,72.86133282
5def3d355adab31c18cea7e5,VINAY OPTICAL,C2001V0228,19.27783883,72.86244024
5def3d355adab31c18cea7e6,VAREKAR OPTICIANS,C2001V0229,19.11132221,72.92797197
5def3d355adab31c18cea7e7,V-CARE VISION,C2001V0230,19.21272347,72.84027144
5def3d355adab31c18cea7e8,VISION EXPRESS,C2001V0231,19.04378756,72.86465574
5def3d355adab31c18cea7e9,VISION IMPRESSION NALLASOPARA,C2001V0232,19.42690794,72.81109035
5def3d355adab31c18cea7ea,VIMAL OPTICAL,C2001V0233,19.2284759,72.82366823
5def3d355adab31c18cea7eb,VAIDEHI OPTICS,C2001V0234,19.43268427,72.81702071
5def3d355adab31c18cea7ed,VAIBHAV OPTICIANS & CONTACT LENSES CLINIC,C2001V0236,19.48650059,73.93626094
5def3d355adab31c18cea7ee,VARSA OPTICS NALLASOPARA EAST,C2001V0237,19.41848416,72.81997986
5def3d355adab31c18cea7ef,VAREKAR OPTICIAN,C2001V0238,19.16107246,72.93255452
5def3d355adab31c18cea7f0,VISION PALACE ,C2001V0239,19.08494199,72.91005984
5def3d355adab31c18cea7f1,WELCOME EYE CARE,C2001W0016,19.18737433,72.81916581
5def3d355adab31c18cea7f2,YOGIRAJ OPTICS,C2001Y0019,19.19367652,72.87410282
5def3d355adab31c18cea7f3,YASH OPTIKS,C2001Y0020,19.20336317,72.84102581
5def3d355adab31c18cea7f4,ZAINAB OPTICS,C2001Z0007,19.14244174,72.83695254
5def3d355adab31c18cea7f5,ZOHER BROS OPTICIANS,C2001Z0008,18.95903572,72.83186942
5def3d355adab31c18cea7f6,ZOOM OPTICAL ,C2001Z0009,19.0912633,72.90696122
5def3d355adab31c18cea7f7,AS VISION CARE,C2004A0271,13.03429076,77.55829655
5def3d355adab31c18cea7f8,ASIAN OPTICAL,C2004A0272,13.02462307,77.5572934
5def3d355adab31c18cea7fa,ANJAN OPTICALS,C2004A0274,12.90893603,77.54893161
5def3d355adab31c18cea7fb,A-1 OPTICIAN,C2004A0275,12.90267703,77.52046064
5def3d355adab31c18cea7fc,AKARSHAK EYE CARE OPTICALS,C2004A0276,12.93235588,77.54205812
5def3d355adab31c18cea7fd,BOHRA OPTICALS,C2004B0243,12.98874999,77.60893866
5def3d355adab31c18cea7fe,BRIGHT VISION CARE,C2004B0244,12.99773925,77.54475038
5def3d355adab31c18cea7ff,BEST OPTICIANS,C2004B0245,12.99662394,77.56271515
5def3d355adab31c18cea800,BASAVESHWARA OPTICALS,C2004B0246,12.99024267,77.53806967
5def3d355adab31c18cea801,BRAHMIVISION CARE,C2004B0247,12.96579024,77.52332691
5def3d355adab31c18cea802,BRAHMI VISION CARE,C2004B0248,12.96580495,77.52329137
5def3d355adab31c18cea803,BEST EYE CARE,C2004B0249,12.92726505,77.54558589
5def3d355adab31c18cea804,CITY OPTICS,C2004C0240,12.90924584,77.57299908
5def3d355adab31c18cea805,C M OPTICALS,C2004C0241,13.03103775,77.5599803
5def3d355adab31c18cea806,CITY OPTICIANS,C2004C0242,13.02803622,77.60445166
5def3d355adab31c18cea807,DEWAN OPTICAL SHOP,C2004D0273,13.01410012,77.6187076
5def3d355adab31c18cea808,DARSHAN OPTICIANS,C2004D0274,12.92406162,77.55326573
5def3d355adab31c18cea809,EYELINE OPTICALS,C2004E0262,13.02454892,77.59537239
5def3d355adab31c18cea80a,ENVISION OPTICALS,C2004E0263,13.0232041,77.63588816
5def3d355adab31c18cea80b,EYE ZONE OPTICS,C2004E0264,13.02536587,77.63053112
5def3d355adab31c18cea80c,EYE PLANET,C2004E0265,13.03255402,77.6047866
5def3d355adab31c18cea80e,EYE 5 OPTICS,C2004E0267,13.02176976,77.65768111
5def3d355adab31c18cea80f,EYE LINE OPTICALS ,C2004E0268,13.00104954,77.61252377
5def3d355adab31c18cea810,EYE DEN,C2004E0269,13.00625417,77.65947819
5def3d355adab31c18cea811,FOCUS OPTICALS,C2004F0210,12.97385964,77.54427496
5def3d355adab31c18cea812,GIRI NAGAR VISION CARE,C2004G0277,12.94086324,77.54520167
5def3d355adab31c18cea813,GLOBAL VISION ZONE,C2004G0278,13.12272681,77.62753341
5def3d355adab31c18cea814,GSSL EYE WARE,C2004G0279,13.06278827,77.55910657
5def3d355adab31c18cea815,GALAXY OPTICALS,C2004G0280,12.99127568,77.53822993
5def3d355adab31c18cea816,H S OPTICLS,C2004H0225,13.04551443,77.50752535
5def3d355adab31c18cea817,JALA OPTICALS,C2004J0220,13.0977307,77.56529074
5def3d355adab31c18cea818,JEEVAN VISION CARE,C2004J0221,12.91797359,77.5598073
5def3d355adab31c18cea819,KING OPTICIANS,C2004K0241,13.01766368,77.59806901
5def3d355adab31c18cea81a,KVC OPTICALS,C2004K0242,13.03210195,77.62131874
5def3d355adab31c18cea81b,KGN SIGHT OPTICALS,C2004K0243,13.05961794,77.55889669
5def3d355adab31c18cea81c,KHLEEL VISION CARE,C2004K0244,13.0194946,77.61333682
5def3d355adab31c18cea81d,KIRAN VISION CARE,C2004K0245,12.94718533,77.5701499
5def3d355adab31c18cea81e,KRISHNA OPTICIAN AND HEARING AID CENTERLL,C2004K0246,13.00431862,77.55334184
5def3d355adab31c18cea81f,LENSCRAFTER,C2004L0218,13.05432885,77.50752501
5def3d355adab31c18cea820,LIMRA OPTICALS,C2004L0219,13.01491417,77.61329055
5def3d355adab31c18cea821,LA VISION ,C2004L0220,12.99758995,77.60092422
5def3d355adab31c18cea822,LENS 2 EYES,C2004L0221,12.90831118,77.54850715
5def3d355adab31c18cea823,LOOKWELL OPTICALS,C2004L0222,12.9755223,77.62597136
5def3d355adab31c18cea824,GALAXY OPTICALS,C2004M0274,12.99893296,77.55087186
5def3d355adab31c18cea825,MAARIYAH OPTICS AND HOMEO CLINIC,C2004M0275,12.92115553,77.61350077
5def3d355adab31c18cea826,M M OPTICALS,C2004M0276,13.01946096,77.55796161
5def3d355adab31c18cea827,MUNDASADA OPTICALS,C2004M0277,12.96030507,77.57023707
5def3d355adab31c18cea828,NEW LOOKS OPTICALS,C2004N0271,13.09473325,77.58029133
5def3d355adab31c18cea829,NEW LIFE OPTO CARE,C2004N0272,13.06985612,77.55540244
5def3d355adab31c18cea82a,NAVARANG OPTICALS,C2004N0273,12.99831422,77.55352456
5def3d355adab31c18cea82b,NEW ISRA OPTICALS,C2004N0274,13.06025971,77.55888999
5def3d355adab31c18cea82c,NAYAN OPTICIANS,C2004N0275,13.02455415,77.6128101
5def3d355adab31c18cea82d,NEW MOONLIGHT OPTICALS,C2004N0276,13.0109246,77.63517134
5def3d355adab31c18cea82e,N R OPTICALS,C2004N0277,12.93798839,77.55638916
5def3d355adab31c18cea82f,OPTICAL EXPRESS,C2004O0254,12.92857184,77.58632127
5def3d355adab31c18cea830,OSQUARE.IN OPTICAL,C2004O0255,12.91640891,77.61013828
5def3d355adab31c18cea831,OVAL OPTICAL,C2004O0256,13.04296807,77.51414437
5def3d355adab31c18cea832,OZONE OPICALS ,C2004O0257,13.0241295,77.59760465
5def3d355adab31c18cea833,OPTICAL FANTASY,C2004O0258,13.02435358,77.59686437
5def3d355adab31c18cea834,OPTIC GALLERY,C2004O0259,12.9423549,77.54871503
5def3d355adab31c18cea835,OPTIKS EYE WEAR,C2004O0260,13.02298393,77.56495345
5def3d355adab31c18cea836,OPTICSUN EYEWEAR,C2004O0261,12.94778982,77.5684192
5def3d355adab31c18cea837,OM SAI VIGNESH OPTICALS,C2004O0262,13.0021658,77.6317884
5def3d355adab31c18cea838,OPTIC HOUSE,C2004O0263,12.91012918,77.55066633
5def3d355adab31c18cea839,OM OPTICAL,C2004O0264,12.95750788,77.51861595
5def3d355adab31c18cea83a,PRIME VISION CARE,C2004P0260,12.91666185,77.59330675
5def3d355adab31c18cea83b,PRESIDENT OPTICAL HOUSE,C2004P0261,12.94833582,77.57189602
5def3d355adab31c18cea83c,PRESIDENT OPTICAL HOUSE,C2004P0262,12.99753507,77.5463577
5def3d355adab31c18cea83d,RANK OPTICIANSS,C2004R0266,12.91402985,77.58579656
5def3d355adab31c18cea83e,REX-TECH OPTICALS,C2004R0267,13.06682828,77.50248246
5def3d355adab31c18cea83f,R G EYE CARE,C2004R0268,13.08490105,77.49890104
5def3d355adab31c18cea840,ROYAL OPTICIANS ,C2004R0269,13.00854154,77.61333682
5def3d355adab31c18cea841,RAJAT OPTICALS,C2004R0270,13.02646015,77.55809136
5def3d355adab31c18cea842,RANK OPTICIANS,C2004R0271,12.99848703,77.54086252
5def3d355adab31c18cea843,SHREE EYE TECH OPTICALS AND CONTACT LENS CLIN,C2004S0410,12.91582656,77.58586396
5def3d355adab31c18cea844,SANJAY OPTICALS,C2004S0411,13.06279153,77.59223487
5def3d355adab31c18cea845,SPECS KART,C2004S0412,13.12147786,77.62039673
5def3d355adab31c18cea846,SRIRAMVILAS OPTICALS,C2004S0413,12.99794963,77.55177509
5def3d355adab31c18cea847,SNEHA EYE WORLD,C2004S0414,12.99704765,77.55137376
5def3d355adab31c18cea848,SPECS WORLD,C2004S0415,13.06124932,77.63317443
5def3d355adab31c18cea849,SHARATH OPTICALS,C2004S0416,12.93872883,77.55081318
5def3d355adab31c18cea84a,SS OPTICAL WORLD,C2004S0417,13.02409357,77.55717505
5def3d355adab31c18cea84b,SRI SAI OPTICALS,C2004S0418,13.03473792,77.60470681
5def3d355adab31c18cea84c,SPECS AND LENS,C2004S0419,12.91686675,77.59356458
5def3d355adab31c18cea84d,SADIYA OPTICIANS,C2004S0420,12.98797735,77.60855075
5def3d355adab31c18cea84e,STAR OPTICALS,C2004S0421,13.17094461,77.56381821
5def3d355adab31c18cea84f,SRI MARUTHI VISION CARE,C2004S0422,12.92496256,77.54977752
5def3d355adab31c18cea850,SUHATHA OPTICAL,C2004S0423,12.98810836,77.53626153
5def3d355adab31c18cea851,SUJAY OPTICALS,C2004S0424,12.93031715,77.55333614
5def3d355adab31c18cea852,SRINIVAS EYE HOSPITAL,C2004S0425,13.0145225,77.65163206
5def3d355adab31c18cea853,SRI BALAJI OPTICALS,C2004S0426,12.96244224,77.64324311
5def3d355adab31c18cea854,SRI GANESH VISION CARE ,C2004S0427,12.93850206,77.55328484
5def3d355adab31c18cea855,THE OPTICAL HUB,C2004T0222,13.10232854,77.63123821
5def3d355adab31c18cea856,THRUPTHI OPTICAL CO,C2004T0223,12.97133835,77.53775854
5def3d355adab31c18cea857,VISUAL OPTICS,C2004V0322,13.10422545,77.60344818
5def3d355adab31c18cea858,VISION CARE OPTICALS,C2004V0323,13.03868204,77.55710565
5def3d355adab31c18cea859,VINOD VISION CARE,C2004V0324,13.04034884,77.55735878
5def3d355adab31c18cea85a,VISION OPTICIANS,C2004V0325,12.98433006,77.61426788
5def3d355adab31c18cea85b,VINU VISION CARE,C2004V0326,13.00686505,77.63991717
5def3d355adab31c18cea85c,VISION PALACE,C2004V0327,13.17923288,77.5860792
5def3d355adab31c18cea85d,VISION EXPERTS,C2004V0328,12.95883019,77.51911953
5def3d355adab31c18cea85e,BACHEWAR OPTICAL,C2005B0223,18.39907176,76.57956015
5def3d355adab31c18cea85f,DRUSHTI OPTICAL,C2005D0230,18.39914907,76.5806042
5def3d355adab31c18cea860,EYESIGHT OPTICS,C2005E0237,15.57390272,73.7935416
5def3d355adab31c18cea861,MAINKAR OPTICIAN,C2005M0254,15.56250589,74.01006326
5def3d355adab31c18cea862,MHALSA OPTICS,C2005M0255,15.49808434,73.82257484
5def3d355adab31c18cea863,MAYA OPTICS,C2005M0256,15.59231001,73.94645266
5def3d355adab31c18cea864,SEEMA OPTICIAN,C2005S0318,15.7168243,73.79804168
5def3d355adab31c18cea865,EYE STUDIO,C2009E0063,23.10895149,72.58905876
5def3d355adab31c18cea866,AK OPTICAL ZONE 2,C2021A0075,18.48412093,73.93176388
5def3d355adab31c18cea867,ANUKAR OPTICALS,C2021A0076,19.95275312,73.83381832
5def3d355adab31c18cea868,ANVY ENTERPRISES,C2021A0077,18.5815848,73.81231472
5def3d355adab31c18cea869,AR EYE CARE & CONTACT LENS CLINIC,C2021A0078,18.58725423,73.82345192
5def3d355adab31c18cea86a,AK OPTICAL ZONE,C2021A0079,18.48001608,73.9309733
5def3d355adab31c18cea86b,ABOLEE OPTICALS,C2021A0080,19.9686186,73.75605974
5def3d355adab31c18cea86c,ANJALI OPTICALS,C2021A0081,19.18378252,77.30439395
5def3d355adab31c18cea86d,AKSHAY OPTICS AND VISION CARE,C2001A0207,19.97147356,73.75569195
5def3d355adab31c18cea86e,ATHARV OPTICALS,C2021A0083,18.48635409,73.95339791
5def3d355adab31c18cea86f,AJAY OPTICALS,C2021A0084,18.50069292,73.93090457
5def3d355adab31c18cea870,ASHA OPTICAL,C2021A0085,19.88735491,75.31917069
5def3d355adab31c18cea871,APOLLO OPTICAL,C2021A0086,19.15736415,77.30819799
5def3d355adab31c18cea872,AHIR OPTICAL,C2021A0088,19.15629082,77.30846923
5def3d355adab31c18cea873,AHIRA EYE CARE & OPTICAL CENTER,C2021A0074,20.00975804,73.80202074
5def3d355adab31c18cea874,ADITYARAJ OPTICALS,C2021A0090,19.15156258,77.30898689
5def3d355adab31c18cea875,AURANGABAD OPTICAL,C2021A0091,19.88845051,75.33843163
5def3d355adab31c18cea876,AL-NOOR OPTICALS,C2021A0092,19.88724834,75.33957794
5def3d355adab31c18cea877,AMAAN EYE CARE CENTRE OPTICAL HOUSE ,C2021A0093,19.88782594,75.34542181
5def3d355adab31c18cea878,ASHISH OPTICAL AND CONTACT LENCE CLINIC,C2021A0094,18.62180539,73.85150716
5def3d355adab31c18cea879,A1 VINUS OPTICIANS ,C2021A0095,18.62861375,73.78077831
5def3d355adab31c18cea87a,ASIAN OPTICS,C2021A0096,18.63696552,73.79612591
5def3d355adab31c18cea87b,BALAJI OPTICALS,C2021B0034,18.56549231,73.84961922
5def3d355adab31c18cea87d,BRIGHT OPTICAL,C2021B0036,19.88624165,75.32755259
5def3d355adab31c18cea87e,BHAVESH OPTICALS ,C2021B0037,20.03929785,73.80461913
5def3d355adab31c18cea87f,BASATWAR OPTICAL ,C2021B0038,19.88471819,75.32836631
5def3d355adab31c18cea880,BHARAT EYE CARE (GURAV PIMPLE) ,C2021B0039,18.58522896,73.81619386
5def3d355adab31c18cea881,BHARAT EYE CARE (AKURDI) ,C2021B0040,18.65001721,73.78099289
5def3d355adab31c18cea882,CHAKSHU OPTICIANS,C2021C0045,18.50014827,73.94269824
5def3d355adab31c18cea884,CHAKSHU OPTICIANS CHINCHWAD,C2021C0047,18.63478231,73.78806822
5def3d355adab31c18cea885,CHAKSHU OPTICIANS NIGADI,C2021C0048,18.65983358,73.77653137
5def3d355adab31c18cea886,CITY OPTICS ( BHOSARI) ,C2021C0049,18.62018245,73.85466076
5def3d355adab31c18cea887,DISHA OPTICALS,C2021D0063,19.15857239,77.30800521
5def3d355adab31c18cea889,DEV DAWANE OPTICALS,C2021D0064,19.89478213,75.29948965
5def3d355adab31c18cea88a,DAWANE OPTICALS,C2021D0065,19.88218799,75.29219974
5def3d355adab31c18cea88b,DHANASHREE OPTICALS,C2022S0057,20.00175022,73.78676869
5def3d355adab31c18cea88c,DURGA OPTICAL,C2021D0068,19.15743098,77.30833512
5def3d355adab31c18cea88d,DIAMOND OPTICAL,C2021D0069,19.88635862,75.32841124
5def3d355adab31c18cea88e,DISHA OPTICS,C2021D0070,19.96707104,73.75495669
5def3d355adab31c18cea88f,DRUSHTI OPTICALS ,C2021D0071,19.8779129,75.32302402
5def3d355adab31c18cea890,DADA OPTICAL,C2021D0072,19.15134563,77.33299669
5def3d355adab31c18cea891,DIVYA OPTICAL,C2021D0073,19.11438814,77.32535373
5def3d355adab31c18cea892,DEV OPTICALS CHINCHWAD ,C2021D0074,18.62416479,73.78617156
5def3d355adab31c18cea893,DIWAN OPTICALS ,C2021D0076,20.08260164,74.1013281
5def3d355adab31c18cea894,EYE VISION OPTICS,C2021E0042,18.58243777,73.81279115
5def3d355adab31c18cea895,EYE PLUS,C2021E0043,18.48750134,73.89804583
5def3d355adab31c18cea896,EYE CARE SPECTS LENS ATTAR,C2021E0044,18.48149567,73.89839552
5def3d355adab31c18cea897,ELLORA OPTICAL,C2021E0045,19.88648284,75.32793917
5def3d355adab31c18cea898,EYE2EYE OPTICALS,C2001E0138,20.10122475,74.16680183
5def3d355adab31c18cea899,EYE WORLD OPTICAL,C2021E0047,19.88634695,75.32850813
5def3d355adab31c18cea89a,EYE TOUCH OPTICAL,C2021E0048,19.88624165,75.32755259
5def3d355adab31c18cea89b,EYE CARE OPTICALS ,C2021E0049,19.88423328,75.35998285
5def3d355adab31c18cea89d,EYE CARE CLINIC & OPTICIAN,C2021E0051,18.63365924,73.80651947
5def3d355adab31c18cea89e,EYESTAR OPTICALS ,C2021E0052,19.98947591,73.72185286
5def3d355adab31c18cea89f,EYE WORLD OPTICAL ,C2021E0053,19.88764213,75.33994239
5def3d355adab31c18cea8a0,EYE OPTICALS ,C2021E0054,18.47957821,73.89068551
5def3d355adab31c18cea8a1,FOCUS OPTICAL,C2021F0010,19.15818949,77.30904154
5def3d355adab31c18cea8a2,FALAH OPTICIANS ,C2021F0011,18.63334567,73.80991884
5def3d355adab31c18cea8a3,GANARAJ OPTICAL,C2021G0070,18.52515925,73.9593276
5def3d355adab31c18cea8a4,GURU OPTICAL,C2021G0071,19.15807231,77.30805885
5def3d355adab31c18cea8a5,GLOBAL OPTICAL,C2021G0072,19.15929702,77.31144212
5def3d355adab31c18cea8a6,GURUKRUPA OPTICS,C2021G0073,18.58256393,73.81162941
5def3d355adab31c18cea8a7,GLOOSSY OPTICAL,C2021G0074,18.6300749,73.78221598
5def3d355adab31c18cea8a8,GIOBAL OPTIC,C2021G0075,18.62964885,73.78217909
5def3d355adab31c18cea8a9,GRACE OPTICS ( WAKAD) ,C2021G0076,18.59457591,73.7633701
5def3d355adab31c18cea8aa,HELLO OPTICALS,C2021H0009,19.88391421,75.32790162
5def3d355adab31c18cea8ab,I CARE OPTICALS,C2021I0027,18.50114345,73.95244271
5def3d355adab31c18cea8ad,ISHVARI OPTICS,C2021I0029,18.59102601,73.74081004
5def3d355adab31c18cea8ae,JAGDAMBA OPTICS,C2021J0024,18.58072611,73.81241396
5def3d355adab31c18cea8af,JUST LOOK,C2021J0025,18.49483651,73.94606274
5def3d355adab31c18cea8b0,JUST LOOK,C2021J0026,18.52781436,73.94926731
5def3d355adab31c18cea8b1,JI AM OPTISHON,C2021J0027,18.48106639,73.87333129
5def3d355adab31c18cea8b2,JADHAV OPTICS,C2021J0028,18.6251459,73.78602874
5def3d355adab31c18cea8b3,JADHAV OPTICS,C2021J0029,18.61201796,73.80070914
5def3d355adab31c18cea8b4,JAI GANESH OPTICALS ,C2021J0030,19.98947591,73.72185286
5def3d355adab31c18cea8b5,JANHVI OPTICIANS,C2021J0031,18.6032452,73.76459017
5def3d355adab31c18cea8b6,K P S OPTICALS,C2021K0037,18.58049856,73.81240726
5def3d355adab31c18cea8b7,KRUSHNA OPTICALS,C2021K0038,19.97261899,73.75545893
5def3d355adab31c18cea8b8,KIRAN OPTICAL,C2021K0039,19.15908609,77.30913978
5def3d355adab31c18cea8b9,KILJE OPTICAL,C2021K0040,18.94646081,77.11573575
5def3d355adab31c18cea8ba,KIFAYAT OPTICAL,C2021K0042,19.88835655,75.33947635
5def3d355adab31c18cea8bb,KAPIL OPTICIANS ,C2021K0043,18.62560786,73.80506907
5def3d355adab31c18cea8bc,KGN OPTICIANS,C2021K0044,18.62161762,73.85095026
5def3d355adab31c18cea8bd,KRITI ENTERPRISES ,C2021K0046,20.00501256,73.78627215
5def3d355adab31c18cea8be,LOKHANDE OPTICALS,C2021L0023,19.97506518,73.83290067
5def3d355adab31c18cea8bf,LENS & SPECS OPTICIAN,C2021L0024,18.50175486,73.9006231
5def3d355adab31c18cea8c0,LENS OPTICAL ,C2021L0025,19.8866884,75.32850612
5def3d355adab31c18cea8c1,LUCKY OPTICAL,C2021L0026,18.61059924,73.76905069
5def3d355adab31c18cea8c3,MAHALAXMI OPTICALS,C2021M0058,18.56151369,73.85256361
5def3d355adab31c18cea8c4,MORYA OPTICAL,C2021M0059,19.15871808,77.30917566
5def3d355adab31c18cea8c5,MARATHWADA OPTICAL,C2021M0060,19.88624165,75.32755259
5def3d355adab31c18cea8c6,METRO OPTICALS,C2021M0061,19.88601212,75.32835256
5def3d355adab31c18cea8c7,MERAJ OPTICALS ,C2021M0062,19.88803655,75.34188163
5def3d355adab31c18cea8c8,MORYA OPTICALS ,C2021M0063,18.49806791,73.93322635
5def3d355adab31c18cea8c9,MAHARASTRA OPTICALS ( DANGE CHOW) ,C2021M0064,18.61496054,73.76594938
5def3d355adab31c18cea8ca,MADNI EYE CARE ,C2021M0065,19.89006221,75.33848494
5def3d355adab31c18cea8cb,NEW ARYAN OPTICAL,C2021N0085,19.15888625,77.30919845
5def3d355adab31c18cea8cc,NANDED OPTICAL,C2021N0086,19.15885743,77.3091609
5def3d355adab31c18cea8cd,NEW VISION OPTICALS,C2021N0087,19.97285028,73.84101804
5def3d355adab31c18cea8ce,NEW MAHAJAN OPTICALS,C2021N0088,19.96538797,73.75342917
5def3d355adab31c18cea8cf,NITYASEVA OPTICS,C2021N0089,18.57518199,73.81724797
5def3d355adab31c18cea8d0,NISHAS OPTICAL GALLERY,C2021N0090,18.58906974,73.81671958
5def3d355adab31c18cea8d1,NEO OPTICS,C2021N0084,19.97183594,73.78477983
5def3d355adab31c18cea8d2,NETRAGHAR,C2021N0092,18.49606638,73.94429617
5def3d355adab31c18cea8d3,NEW DRUSHTI OPTICAL,C2021N0093,19.15824143,77.30677474
5def3d355adab31c18cea8d4,NETRA OPTICS & CONTACT,C2021N0094,18.60637191,73.7732004
5def3d355adab31c18cea8d5,NEW MILAN OPTICALS,C2021N0095,20.07716496,74.10964999
5def3d355adab31c18cea8d6,NEW BALAJI OPTICALS,C2021N0096,18.61342618,73.7665787
5def3d355adab31c18cea8d7,NEW TAJ OPTICAL,C2021N0097,19.15966186,77.31144212
5def3d355adab31c18cea8d8,NETRADEEP OPTICAL,C2021N0098,19.87858669,75.31884313
5def3d355adab31c18cea8d9,NATIONAL OPTICALS,C2021N0099,18.62765299,73.7830374
5def3d355adab31c18cea8da,NEW SHREE OPTICALS CHINCHWAD,C2021N0100,18.62662741,73.78261562
5def3d355adab31c18cea8db,NAINA EYE PLUS,C2021N0101,18.59533348,73.80279154
5def3d355adab31c18cea8dc,NEW BALAJI OPTICALS,C2021N0102,18.56520659,73.85035884
5def3d355adab31c18cea8dd,NEW KIRAN OPTICAL,C2021N0103,19.15348411,77.31278792
5def3d355adab31c18cea8de,NAMO OPTICAL,C2021N0104,18.62477386,73.82044617
5def3d355adab31c18cea8df,NETRADEEP OPTICAL,C2021N0105,18.96910771,76.74754892
5def3d355adab31c18cea8e0,NAWAB OPTHALMICS,C2021N0106,19.8872701,75.3268237
5def3d355adab31c18cea8e1,NEW VISION OPTICAL,C2021N0107,18.63656205,73.79645146
5def3d355adab31c18cea8e2,NAINA S OPTIC ,C2021N0108,18.63651344,73.79662849
5def3d355adab31c18cea8e3,NEW ROYAL OPTICAL,C2021N0109,19.15393036,77.3326765
5def3d355adab31c18cea8e4,NATIONAL OPTICALS ,C2021N0110,18.63334567,73.81187081
5def3d355adab31c18cea8e5,OM OPTICIAN,C2021O0068,18.58034093,73.81236669
5def3d355adab31c18cea8e6,OMKAR OPTICALS,C2021O0069,19.15826012,77.30819464
5def3d355adab31c18cea8e7,OM OPTICAL,C2021O0070,19.18295097,77.30533876
5def3d355adab31c18cea8e8,OPTICAL PALACE,C2021O0071,19.15727009,77.30807628
5def3d355adab31c18cea8e9,OPTIC HUB,C2021O0072,18.53105244,73.94145772
5def3d355adab31c18cea8ea,OM SAI NETRALAY,C2022O0010,19.96721033,73.77535354
5def3d355adab31c18cea8eb,OM SAI OPTICS,C2021O0074,18.58846373,73.78208756
5def3d355adab31c18cea8ec,OPTICARE OPTICAL,C2021O0075,19.8842998,75.32852456
5def3d355adab31c18cea8ed,OPTICS VISION STORE,C2021O0076,18.59577423,73.77117701
5def3d355adab31c18cea8ee,OVI OPTICS,C2021O0077,18.56240458,73.83610725
5def3d355adab31c18cea8ef,OM OPTICALS,C2021O0078,19.96806242,73.75994995
5def3d355adab31c18cea8f0,OMSAI OPTICAL,C2021O0079,19.16616779,77.30533876
5def3d355adab31c18cea8f1,OPTICAL PALACE ,C2021O0080,19.86813041,75.35415307
5def3d355adab31c18cea8f2,OMKAR EYE CARE,C2021O0081,19.84677648,73.99851032
5def3d355adab31c18cea8f3,OPTICS ( BAVDHAN) ,C2021O0082,18.5205073,73.77771121
5def3d355adab31c18cea8f4,OM OPTICALS ,C2021O0083,19.86982556,75.32937281
5def3d355adab31c18cea8f5,PURI OPTICALS,C2021P0080,19.95264534,73.83978356
5def3d355adab31c18cea8f6,P F C VISION,C2021P0081,18.60093191,73.80256891
5def3d355adab31c18cea8f7,PRIYA OPTICAL,C2021P0082,18.94208842,77.11194377
5def3d355adab31c18cea8f8,PRINCE OPTICAL,C2021P0083,18.94523359,77.11849339
5def3d355adab31c18cea8f9,PRAKASH OPTICIANS,C2021P0084,18.53268164,73.93854015
5def3d355adab31c18cea8fa,PRAKASH OPTICIANS,C2021P0085,18.60370754,73.79151016
5def3d355adab31c18cea8fb,PARAS OPTICAL,C2021P0086,19.8864119,75.32851517
5def3d355adab31c18cea8fc,PATEL OPTICAL,C2021P0087,19.87604442,75.32619104
5def3d355adab31c18cea8fd,PRIME OPTICS,C2021P0088,18.60076731,73.79387688
5def3d355adab31c18cea8fe,PANKAJ EYE CARE & OPTICALS,C2021P0089,20.07742821,74.10715219
5def3d355adab31c18cea8ff,PARNAVI OPTICALS ,C2021P0090,20.06614773,73.95995624
5def3d355adab31c18cea900,PAYAL OPTICALS,C2021P0091,18.6195381,73.8429603
5def3d355adab31c18cea901,PURVA OPTICIANS,C2021P0092,18.62090846,73.85286838
5def3d355adab31c18cea902,PRAGATI OPTICAL ,C2021P0093,19.88551523,75.32755259
5def3d355adab31c18cea903,PRANAV OPTICAL,C2021P0094,19.15816796,77.30813395
5def3d355adab31c18cea904,QAMAR OPTICAL,C2021Q0002,19.15870319,77.30923064
5def3d355adab31c18cea905,QUTBI OPTICS,C2021Q0003,18.50078289,73.95199075
5def3d355adab31c18cea906,RAJ OPTICAL,C2021R0063,19.16089257,77.31862206
5def3d355adab31c18cea907,RAJKIRAN OPTICALS,C2021R0064,19.15766566,77.30838843
5def3d355adab31c18cea908,RAJ OPTICALS,C2021R0065,19.15721372,77.30804142
5def3d355adab31c18cea909,ROSHNI OPTICAL,C2021R0066,19.15888213,77.30760455
5def3d355adab31c18cea90a,RABBANI OPTICAL,C2021R0067,19.85486562,75.30927736
5def3d355adab31c18cea90b,RATHOD OPTICALS CONTACT LENS CLINIC,C2021R0068,20.03420238,73.80333435
5def3d355adab31c18cea90c,ROSHNI EYE CARE & OPTICAL ,C2021R0069,19.8876724,75.34030683
5def3d355adab31c18cea90e,RAJESHWAR OPTICAL,C2021R0071,19.15924096,77.30694138
5def3d355adab31c18cea90f,RAJ EYE CARE & OPTICAL CENTER ,C2021R0072,19.99294488,73.71119175
5def3d355adab31c18cea910,ROYAL OPTICAL,C2021R0073,19.17991925,77.30305117
5def3d355adab31c18cea911,RENUKA VISION ,C2021R0074,19.89146203,73.83304283
5def3d355adab31c18cea912,RAJ OPTICALS AND STUDIO ,C2021R0075,18.46810831,73.88902288
5def3d355adab31c18cea913,SHRI PATIL OPTICALS,C2021S0241,19.15842322,77.30714388
5def3d355adab31c18cea914,SMART OPTICIAN,C2021S0242,18.50176726,73.93242471
5def3d355adab31c18cea915,SAI OPTICIANS,C2021S0243,19.97654586,73.83417137
5def3d355adab31c18cea916,SONIC OPTICALS,C2021S0244,19.15830573,77.30714455
5def3d355adab31c18cea917,SHIVARAJ OPTICALS,C2021S0245,19.16089257,77.31862206
5def3d355adab31c18cea918,S VISION OPTICAL,C2021S0246,18.48341152,73.93913459
5def3d355adab31c18cea919,SARGAM CHASMAGHAR,C2021S0213,18.49956197,73.93947121
5def3d355adab31c18cea91a,SHREE OPTICALS,C2021S0248,18.58776936,73.82042304
5def3d355adab31c18cea91b,SURABHI OPTICALS,C2021S0249,18.50079212,73.93627536
5def3d355adab31c18cea91c,SHRI BALAJI OPTICALS,C2021S0250,19.1580001,77.30887324
5def3d355adab31c18cea91d,SHRI SAI OPTICALS,C2021S0251,19.18635756,77.30053693
5def3d355adab31c18cea91e,SEVA OPTICAL,C2021S0252,19.15867374,77.3076639
5def3d355adab31c18cea91f,SPEX STUDIO,C2021S0253,18.49410902,73.90002228
5def3d355adab31c18cea920,SAI OPTICALS,C2021S0254,19.97795153,73.84061974
5def3d355adab31c18cea921,SAI OPTICALS,C2021S0255,18.48759164,73.94440781
5def3d355adab31c18cea922,SAI CHASHMAGHAR,C2021S0256,18.58101753,73.81879326
5def3d355adab31c18cea923,SHRI BALAJI OPTICALS,C2021S0257,18.87069645,77.19398551
5def3d355adab31c18cea924,SHIVAM OPTICAL,C2021S0258,18.94561254,77.11551413
5def3d355adab31c18cea925,SAIRAJ OPTICS,C2021S0259,18.5613678,73.78719717
5def3d355adab31c18cea926,SAI OPTIC,C2021S0260,18.52812717,73.94808345
5def3d355adab31c18cea927,SONY EYE CARE & OPTICAL,C2021S0261,19.88669408,75.32850612
5def3d355adab31c18cea928,SPECKS & SHADES EYE WEAR,C2021S0262,18.56076709,73.81190937
5def3d355adab31c18cea929,SAI OPTICALS,C2021S0263,20.00168973,73.78655042
5def3d355adab31c18cea92a,SHREYA OPTICAL,C2021S0264,18.58762064,73.78332574
5def3d355adab31c18cea92b,SAI OPTICALS,C2022S0004,19.92614773,73.83391924
5def3d355adab31c18cea92c,SHUYASH OPTICAL,C2021S0266,18.47579252,73.86230003
5def3d355adab31c18cea92d,SHREE SWAMI SAMARTH NETRA SEVA,C2021S0267,19.95335286,73.76667459
5def3d355adab31c18cea92e,SHREE DATTA OPTICALS,C2021S0268,19.8777543,75.32301128
5def3d355adab31c18cea92f,SWASTIK OPTICAL,C2021S0269,19.15757571,77.30763406
5def3d355adab31c18cea930,SOURCE 1 OPTICS,C2021S0270,18.58774489,73.77996091
5def3d355adab31c18cea931,SHREE SWAMI SAMARTH NETRA SEVA,C2021S0271,19.97775112,73.7571628
5def3d355adab31c18cea932,SAIRAJ OPTICS,C2021S0272,18.59775139,73.77410598
5def3d355adab31c18cea934,SHRI VENKATESH OPTICALS,C2021S0274,19.15799092,77.30867174
5def3d355adab31c18cea935,SHRIRAM OPTICALS,C2021S0275,19.11133488,77.28958044
5def3d355adab31c18cea936,SOLAR VISION OPTIC + CONTACT LENS CLINIC,C2022S0021,20.00213553,73.77355378
5def3d355adab31c18cea937,SAISHRADDHA OPTICAL,C2021S0277,19.15485612,77.31001049
5def3d355adab31c18cea938,SHRI GANESH OPTICAL,C2021S0278,19.15577838,77.31034275
5def3d355adab31c18cea939,S S OPTICALS ,C2021S0279,19.88681136,75.32863051
5def3d355adab31c18cea93a,STAR OPTICAL ,C2021S0280,19.88638636,75.32848198
5def3d355adab31c18cea93b,SATKRUTI OPTICAL,C2021S0281,19.1634306,77.30873242
5def3d365adab31c18cea93c,SHIVARAJ OPTICAL,C2021S0282,19.00954205,76.95116311
5def3d365adab31c18cea93d,SAI SAMARTH CHASHMAGHAR ,C2022S0039,19.99090951,73.79980389
5def3d365adab31c18cea93e,SHIV OPTICAL,C2021S0284,19.15873518,77.30786908
5def3d365adab31c18cea93f,SAI OPTICAL,C2021S0285,19.15507053,77.30624836
5def3d365adab31c18cea940,SAI OPTICAL D Y MEDECAL CLG PIMPRI,C2021S0286,18.62346485,73.81812271
5def3d365adab31c18cea941,SHREE OPTICALS ,C2021S0288,20.07806904,74.10730138
5def3d365adab31c18cea942,TRIVIKRAM,C2021T0011,18.5857371,73.81623209
5def3d365adab31c18cea943,TRINETRA OPTICS,C2021T0012,18.59633096,73.77396785
5def3d365adab31c18cea944,THE OPTICAL STORE,C2021T0013,18.54748575,73.79102435
5def3d365adab31c18cea945,TAJ OPTICAL,C2021T0014,19.15623097,77.31048223
5def3d365adab31c18cea946,TAMMEWAR OPTICAL,C2021T0015,18.96915812,76.74789928
5def3d365adab31c18cea947,TULJAI OPTICAL,C2021T0016,19.15722227,77.30785165
5def3d365adab31c18cea948,TEACHERS OPTICAL,C2021T0017,19.14061542,77.31036488
5def3d365adab31c18cea949,TITUS EYE + CONTACT LENSES ,C2021T0018,18.47670103,73.88089344
5def3d365adab31c18cea94a,ULTRA VISION,C2021U0011,18.47925195,73.8906654
5def3d365adab31c18cea94b,UTTAM MULTISERVICES OPTICAL,C2021U0012,19.15358134,77.31277686
5def3d365adab31c18cea94c,VIRAJ OPTICAL,C2021V0084,19.15837667,77.3074225
5def3d365adab31c18cea94e,VISION WORKS,C2021V0085,18.58321796,73.81593201
5def3d365adab31c18cea94f,VISION + OPTICAL,C2021V0086,18.5047305,73.95451035
5def3d365adab31c18cea950,VISION TRAILS,C2021V0087,18.56641815,73.80746059
5def3d365adab31c18cea951,VINOD OPTICALS,C2021V0089,18.48466563,73.94591019
5def3d365adab31c18cea952,VISION PLUS OPTICALS,C2021V0091,18.58778589,73.78398556
5def3d365adab31c18cea953,VISION WORLD,C2021V0093,18.48094174,73.86480723
5def3d365adab31c18cea954,VISION OPTICS GALLERY,C2021V0094,18.59259553,73.73929024
5def3d365adab31c18cea955,VARIETY OPTICAL,C2021V0095,19.89037465,75.32751538
5def3d365adab31c18cea956,VISIONPRO OPTICALS,C2021V0096,20.03414977,73.80355865
5def3d365adab31c18cea957,VENKATESH OPTICALS,C2021V0097,18.62163446,73.85063276
5def3d365adab31c18cea958,VYANKATESH OPTICALS ,C2021V0098,19.87011029,75.34704555
5def3d365adab31c18cea959,VISION CARE OPTICIANS VALLBHANAGAR PIMPARI,C2021V0099,18.61791387,73.8173338
5def3d365adab31c18cea95a,YASHRAJ OPTICAL,C2021Y0021,19.15948197,77.30737254
5def3d365adab31c18cea95b,YOGESH OPTICAL,C2021Y0022,19.18666092,77.29308005
5def3d365adab31c18cea95c,YASH OPTICAL,C2021Y0023,19.15769416,77.30853293
5def3d365adab31c18cea95d,YASHRAJ OPTICALS ,C2021Y0024,19.86782802,75.35488196
5def762867566f664d0ab0d3,SHREE BALAJI OPTICALS,C2021S0305,19.87726748,75.34700632
5df08c1867566f664d0ab0d5,OMKAR OPTICALS,C2021O0085,19.86666953,75.34091502
5df339b667566f664d0ab0d9,JUST LOOK OPTICS,C2021J0017,18.47618016,73.86210394
5df4955067566f664d0ab0de,KETAN ,C2028V0022,19.2095628,72.87307821
5df7452467566f664d0ab0e1,EYE MALL OPTICIAN,C2024E0015,19.41602344,72.82354116
5df7a73367566f664d0ab0e3,Vishnu S R,C2072V0032,8.563645035,76.95368741
5df8704a0c66967f7fff648d,SPECS WORLD,C2004S0449,12.89924255,77.62443613
5df8704a0c66967f7fff648f,OPTICOS,C2004O0267,12.91858534,77.61290565
5df8704a0c66967f7fff6492,SPECTIKA OPTICIANS ( JM RD) ,C2021S0297,18.51537612,73.84201448
5df8704a0c66967f7fff6494,EYE CARE OPTICAL,C2004E0272,13.0554194,77.60511585
5df8704a0c66967f7fff6498,STARLITE OPTICS,C2001S0613,19.16391388,72.93599144
5df8704a0c66967f7fff649f,RIDHI OPTICAL,C2001R0202,19.22061301,73.16177141
5df8704a0c66967f7fff64a5,VISTA OPTICALS,C2004V0332,13.07594827,77.5171518
5df8704a0c66967f7fff64a7,I CARE OPTIKO,C2001I0060,19.13000236,72.81479917
5df8704a0c66967f7fff64ab,SWAKSH EYE CARE CLINIC ,C2021S0299,19.97426166,73.78643073
5df8704a0c66967f7fff64b1,S N OPTICALS,C2004S0446,12.98932204,77.50656646
5df8704a0c66967f7fff64b4,OPTICAL WORLD ,C2021O0086,18.46407272,73.85795351
5df8704a0c66967f7fff64b7,JYOTI OPTICAL,C2009J0064,22.29883342,70.78291956
5df8704a0c66967f7fff64b8,GLOBAL EYE AND VISION CARE ,C2021G0078,18.48118691,73.87454364
5df8704a0c66967f7fff64ba,RAJATH OPTICALS,C2004R0275,13.01959848,77.55652998
5df8704a0c66967f7fff64c1,NEHA OPTICALS,C2001N0179,19.16111268,72.93245561
5df8704a0c66967f7fff64c2,SRI EYE VISION CARE,C2004S0434,12.91671969,77.61525795
5df8704a0c66967f7fff64c5,RELIABLE OPTICALS & CONTACT LENS CLINIC,C2001R0201,19.41639815,72.82329876
5df8704a0c66967f7fff64c6,RATNADEEP OPTICS,C2001R0203,13.02969786,77.57065382
5df8704a0c66967f7fff64cd,EYE VOKE OPTICALS & VISION CARE,C2021E0058,19.98050162,73.8002545
5df8704a0c66967f7fff64d2,KRISHNA OPTIC ( UNDRI ),C2021K0048,18.45138592,73.91600657
5df8704a0c66967f7fff64d5,SHINDE OPTICS AND CONTACT LENS CLINIC,C2004S0444,12.98021977,77.51180112
5df8704a0c66967f7fff64d9,THE OPTICAL GALLERY,C2004T0227,12.9560516,77.70061824
5df8704a0c66967f7fff64db,VISION OPTICALS,C2004V0335,12.96188581,77.70138737
5df8704a0c66967f7fff64e5,SRI RAGHAVENDRA VISION CARE,C2004S0447,12.93644834,77.55613837
5df8704a0c66967f7fff64f3,ANIMESH OPTICALS ,C2021A0100,19.87700357,75.32284364
5df8704a0c66967f7fff64f6,OPTICAL 360,C2021O0084,18.48217107,73.89723312
5df8704a0c66967f7fff64f7,EYE STATION OPTICIAN,C2004E0274,13.02936076,77.56116785
5df8704a0c66967f7fff64f9,HKNR OPTICALS,C2004H0226,13.01140709,77.52212528
5df8704a0c66967f7fff64fa,VISION EYE,C2004V0330,12.91164357,77.60631781
5df8704a0c66967f7fff64fe,MRS JANI OPTICS DAHISAR,C2001M0186,19.24921512,72.85894062
5df8704a0c66967f7fff6509,SHREE SAMARTH KRIPA OPTICS,C2001S0615,19.40633135,72.82699183
5df8704a0c66967f7fff6512,BHAVANI OPTICS,C2001B0111,19.2352504,72.97767162
5df8704a0c66967f7fff6515,SHREE SAMARTH CHASMAGHAR,C2001S0600,19.19823764,72.8752907
5df8704a0c66967f7fff6516,NEW GALAXY VISION CARE,C2004N0279,12.98603414,77.48734709
5df8704a0c66967f7fff651b,NEELKANTH OPTICS,C2009N0143,22.31934845,73.16043399
5df8704a0c66967f7fff6526,GLOBAL VISION CARE,C2004G0287,13.12204732,77.6287327
5df8704a0c66967f7fff652a,JOSHI SUNRAYS OPTICS ,C2021J0033,19.87008475,75.34728695
5df8704a0c66967f7fff652d,CORRECT VISION OPTICIANS,C2001C0136,19.44292775,72.82256015
5df8704a0c66967f7fff6532,SHEKAR EYE CARE CENTRE AND OPTICAL,C2004S0448,13.07347505,77.52080027
5df8704a0c66967f7fff6533,GREEN CITY OPTICALS,C2004G0285,13.06310833,77.57272515
5df8704a0c66967f7fff6534,MAHESH OPTICALS,C2004M0281,12.98998491,77.55446333
5df8704a0c66967f7fff6535,GOGRI EYE WEAR,C2001G0161,19.250668,72.86391746
5df8704a0c66967f7fff6541,SHRINATH CHASHMA (MOHAMMADWADI),C2021S0306,18.47262939,73.92337929
5df8704a0c66967f7fff6544,EYE CLEAR VISION,C2004E0270,12.9242809,77.60940403
5df8704a0c66967f7fff654b,COMFORT EYE CARE ,C2001C0135,19.21681614,72.84741953
5df8704a0c66967f7fff654e,VISHAL EYE WEAR,C2004V0334,12.97240052,77.64899511
5df8704a0c66967f7fff6551,REFLECT EYE WEAR,C2009R0128,22.29060845,70.79444267
5df8704a0c66967f7fff6552,SHREE MAULI OPTICAL,C2021S0291,19.86674647,75.35390094
5df8704a0c66967f7fff6555,DASHPUTE CHASHMAGHAR ,C2021D0075,19.98414786,73.75541434
5df8704a0c66967f7fff6559,STAR VISION,C2001S0611,19.29424669,72.87353653
5df8704a0c66967f7fff655b,CLEAR VISION OPTICALS ,C2021C0050,19.86694512,75.34431506
5df8704a0c66967f7fff656d,SPECS VISION,C2004S0445,13.10254112,77.57689901
5df8704a0c66967f7fff6575,SURYA OPTICALS ,C2021S0304,19.90285906,75.3551257
5df8704a0c66967f7fff6577,L N EYE CARE,C2004L0227,12.95872334,77.6554418
5df8704a0c66967f7fff6578,CLARITY VISION CARE,C2004C0243,13.07821344,77.55892485
5df8704a0c66967f7fff657a,KRISHNA OPTICAIN ,C2001K0098,19.06773912,72.89756209
5df8704a0c66967f7fff657c,GLOBAL OPTICAL,C2001G0163,19.28422014,72.86631703
5df8704a0c66967f7fff6580,VILAS OPTICS,C2001V0235,19.97450429,74.9442837
5df8704a0c66967f7fff6589,EYE WEAR,C2009E0065,22.29229046,73.15232635
5df8704a0c66967f7fff658a,KAMAL OPTICIANS ,C2001K0096,19.16949112,72.95804556
5df8704a0c66967f7fff658b,NEW MAYUR OPTICALS ,C2021N0112,19.90266139,75.35522293
5df8704a0c66967f7fff658f,ABHISHEK OPTICALS ,C2021A0097,19.87722554,75.35385098
5df8704a0c66967f7fff6591,SHRI SAMARTH KRUPA OPTICS ,C2001S0612,19.1513111,72.93612286
5df8704a0c66967f7fff6593,SANVI VISION CARE,C2004S0441,13.07273565,77.56731078
5df8704a0c66967f7fff659b,NN OP,C2005N0218,15.61171538,73.82590346
5df8704a0c66967f7fff659c,DASHSANAM OPTICS,C2001D0162,19.08707531,72.90429343
5df8704a0c66967f7fff65a1,AISHWARYA OPTICALS,C2004A0277,12.95689001,77.56978847
5df8704a0c66967f7fff65a2,SRI ANANTH OPTICALS,C2004S0432,13.05503825,77.45892338
5df8704a0c66967f7fff65a3,JAGADISH OPTICALS,C2004J0223,12.98616841,77.48867478
5df8704a0c66967f7fff65a5,MAA OPTICS,C2001M0183,19.17627755,72.95178395
5df8704a0c66967f7fff65a6,DILIP OPTICIANS,C2001D0160,19.24269791,72.85997596
5df8704a0c66967f7fff65ad,SHIVAJI OPTICALS,C2004S0450,12.92097318,77.61816915
5df8704a0c66967f7fff65af,VISION CITY OPTICS ( BAVDHAN) ,C2021V0102,18.51669263,73.78151357
5df8704a0c66967f7fff65b1,V R OPTICIANS,C2004V0336,12.99006168,77.55385313
5df8704a0c66967f7fff65b3,SRI MAHALAKSHMI OPTICALS,C2004S0451,13.00772388,77.5484572
5df8704a0c66967f7fff65b5,SAMARTH OPTICS,C2021S0287,19.86958749,75.32975469
5df8704a0c66967f7fff65b8,OPTICAL PALACE,C2001O0130,19.44555151,72.82366823
5df8704a0c66967f7fff65c2,SHREE EYE CARE,C2001S0608,19.4464519,72.8181288
5df8704a0c66967f7fff65c4,GAJANAN OPTICALS ,C2021G0077,19.88065062,75.32801192
5df8704a0c66967f7fff65c6,INSIGHT EYE CLINIC AND OPTICALS,C2004I0224,13.0601134,77.50371393
5df8704a0c66967f7fff65cd,JYOTI OPTICAL,C2021J0032,19.15238161,77.31257971
5df8704a0c66967f7fff65d4,EYE VISION OPTICS - DP RD.,C2021E0062,18.50187727,73.8053403
5df8704a0c66967f7fff65d6,VED OPTICALS,C2021V0101,19.88088111,75.32333951
5df8704a0c66967f7fff65da,NARAYAN OPTICAL ,C2021N0113,19.89856592,75.35735529
5df8704a0c66967f7fff65de,VISION TECH OPTICALS,C2004V0331,13.05542038,77.6001903
5df8704a0c66967f7fff65df,LIONS NETRA RUGNALAY MEDICAL & OPTICAL,C2021L0027,19.1797587,77.30282318
5df8704a0c66967f7fff65e1,SHREE EYE CARE OPTICIANS,C2004S0428,13.00943401,77.50765644
5df8704a0c66967f7fff65ec,ANIL OPTICAL,C2009A0207,22.29536654,70.80292985
5df8704a0c66967f7fff65f5,BLUE VISION ,C2004B0251,13.05159183,77.5078043
5df8704a0c66967f7fff65f9,PALAK OPTICS,C2001P0194,19.08049783,72.85386186
5df8704a0c66967f7fff65fb,MAHADEV WATCH ELECTRONIC OPTICS,C2001M0178,19.31115728,73.43400121
5df8704a0c66967f7fff65ff,EYE COOL OPTICIAN,C2001E0150,19.1069966,72.89171822
5df8704a0c66967f7fff6602,ZUMEYES,C2021Z0003,18.49030266,73.89988784
5df8704a0c66967f7fff6607,SWAMINI OPTICALS ,C2021S0295,19.87012795,75.34710892
5df8704a0c66967f7fff6609,SAI OPTICAL HADAPSAR (KALE PADAL ),C2021S0294,18.48494672,73.94126359
5df8704a0c66967f7fff660b,PREM EYE CARE ,C2001P0193,19.22715326,72.86048323
5df8704a0c66967f7fff660c,BEENA OPTICALS,C2004B0250,12.96751961,77.67046485
5df8704a0c66967f7fff6619,SHREE SAMARTH KRIPA OPTICS ,C2001S0603,19.42944785,72.82071378
5df8704a0c66967f7fff661c,MAHIRA OPTICS ,C2001M0185,19.16876876,72.93199696
5df8704a0c66967f7fff6623,AISHWARYA OPTICAL,C2004A0278,13.00209492,77.54079513
5df8704a0c66967f7fff6624,SARU OPTICS,C2001S0599,19.24773786,72.86970902
5df8704a0c66967f7fff6625,BALAJEE OPTICS,C2001B0113,19.45907116,72.81111214
5df8704a0c66967f7fff6627,SHADES OPTICS,C2004S0431,12.93760117,77.62664393
5df8704a0c66967f7fff662a,SHREE SAMARTH OPTICS DAHISAR,C2001S0601,19.24800058,72.86982503
5df8704a0c66967f7fff662d,NARAYANA OPTICIANS,C2004N0280,12.85260169,77.66763177
5df8704a0c66967f7fff6631,KULSUM OPTICS,C2001K0099,19.16250647,72.93734159
5df8704a0c66967f7fff6635,GOLDEN OPTICIANS,C2004G0283,12.9494337,77.59614788
5df8704a0c66967f7fff6636,NEW LOOK OPTICALS,C2004N0281,13.05560982,77.53443159
5df8704a0c66967f7fff6639,GRAND VISION,C2004G0289,12.95656981,77.70102963
5df8704a0c66967f7fff663c,R K OPTICALS,C2004R0274,12.96836223,77.6404791
5df8704a0c66967f7fff6644,VISION LAB,C2004V0329,12.89210089,77.58161467
5df8704a0c66967f7fff6645,VIGHNAHATA EYE CARE ,C2021V0100,18.46830389,73.85742579
5df8704a0c66967f7fff664c,GURUMUKH OPTICALS,C2004G0281,13.0720348,77.5671361
5df8704a0c66967f7fff6651,XCELLENT EYE CARE,C2004X0201,12.91392593,77.60948449
5df8704a0c66967f7fff6653,SHREE VETOBA OPTICIANS,C2001S0583,19.16127293,72.93258402
5df8704a0c66967f7fff6654,PRIME VISION OPTICS,C2010P0029,17.41065698,78.46290171
5df8704a0c66967f7fff6656,SHARIFFS EYE CARE OPTICIANS ,C2004S0433,12.91494357,77.60581691
5df8704a0c66967f7fff6658,MAULI EYE CARE ,C2021M0066,19.89311342,75.35530072
5df8704a0c66967f7fff6659,OPTICAL SOUSE,C2001O0132,19.28516162,72.85779767
5df8704a0c66967f7fff665d,SREESAIOPTICAL,C2004S0440,13.09854219,77.59614788
5df8704a0c66967f7fff665e,MAARIYAH OPTICALS,C2004M0279,12.92662163,77.60895107
5df8704a0c66967f7fff6660,FINE VISION,C2001F0034,19.16436454,72.93459635
5df8704a0c66967f7fff6662,TITAN EYEWEAR EYE PLUS,C2021T0020,18.51598971,73.85493234
5df8704a0c66967f7fff6665,EYE ZONE OPTICS,C2021E0056,19.86836564,75.35018105
5df8704a0c66967f7fff6667,SHRI GURUDEV NETRASEVA ,C2021S0302,19.97724223,73.75386368
5df8704a0c66967f7fff666d,BOMBAY OPTIC,C2009B0091,22.31754611,73.16094931
5df8704a0c66967f7fff6671,V K GAWDE AND SONS OPTICIANS,C2001V0243,19.25471034,72.85546347
5df8704a0c66967f7fff6676,DEV OPTICS,C2001D0161,19.23404177,72.86411494
5df8704a0c66967f7fff6679,SRI BALAJI OPTICALS,C2004S0435,13.03153065,77.50443075
5df8704a0c66967f7fff667e,NEW LENS AND FRAMES OPTICIANS,C2004L0225,13.06034594,77.50322476
5df8704a0c66967f7fff6681,SANIKA OPTICALS (BANER),C2021S0298,18.56646296,73.78251974
5df8704a0c66967f7fff6686,EYE LENS OPTICAL ,C2004E0271,12.93224282,77.60581691
5df8704a0c66967f7fff6687,VISION CLEAR,C2001V0240,19.19111742,72.95126796
5df8704a0c66967f7fff6688,EYE WORLD OPTICIANS,C2004E0273,12.92497008,77.56462857
5df8704a0c66967f7fff668e,PARAM OPTICALS & MOBILE SHOPPEE,C2021P0096,19.90253939,75.35332091
5df8704a0c66967f7fff6692,EYE ZONE OPTICS,C2001E0147,19.23287872,72.85248488
5df8704a0c66967f7fff6697,VISION CARE SOLUTION,C2004V0333,13.04658608,77.50952762
5df8704a0c66967f7fff669a,SRE SRIVAROO OPTICALS,C2004S0439,12.91900102,77.59471558
5df8704a0c66967f7fff669b,TRINETRA EYE CARE & OPTICALS,C2009T0030,22.30583267,73.15210138
5df8704a0c66967f7fff669d,SPREAD VISION OPTIC,C2001S0607,19.28363342,72.86187463
5df8704a0c66967f7fff66ae,OPTICAL TREND,C2004O0268,12.91589192,77.63302892
5df8704a0c66967f7fff66b4,VISION TECH ,C2001V0242,19.25378989,72.85825633
5df8704a0c66967f7fff66b5,EYE VOKE OPTICALS & VISION CARE,C2021E0057,20.0077106,73.75510387
5df8704a0c66967f7fff66b8,YESHWANTH OPTICALS,C2004Y0202,13.06962032,77.56422389
5df8704a0c66967f7fff66ba,CHAUDHAY EYE CARE,C2001C0134,19.06018991,72.84415495
5df8704a0c66967f7fff66bb,KALYANI NETRALAYA,C2021K0047,19.90267747,75.35524707
5df8704a0c66967f7fff66bc,OPTIK SCIENTIFIC OPTICIANS,C2001O0128,19.1610069,72.93252803
5df8704a0c66967f7fff66bd,SAI OPTICALS ,C2021S0289,19.86517142,75.31677581
5df8704a0c66967f7fff66be,EYE MAXX,C2004E0277,12.91868207,77.63231277
5df8704a0c66967f7fff66bf,BHARAT OPTICAL,C2021B0041,19.28575784,77.37962689
5df8704a0c66967f7fff66c6,SAI RAM CHASMA GHAR,C2001S0605,19.42247461,72.81923655
5df8704a0c66967f7fff66c7,SUNETHRA SPECTACLES SHOP,C2004S0443,12.94964217,77.59700015
5df8704a0c66967f7fff66cc,NEELAM OPTICS,C2001N0181,19.46266546,72.81480487
5df8704a0c66967f7fff66cf,PLANET VISION,C2004P0264,12.90512385,77.58504555
5df8704a0c66967f7fff66d0,RAJARAJESHWARIOPTICALS,C2004R0276,12.99968498,77.55068745
5df8704a0c66967f7fff66d5,NAVARANG OPTICS,C2001N0176,19.62073727,74.06930655
5df8704a0c66967f7fff66dc,JANATA EYE CARE CENTRE AND OPTICALS,C2004J0222,12.98223261,77.60322053
5df8704a0c66967f7fff66e1,VISION EYE PLUS OPTICS,C2001V0241,19.14921345,72.92716496
5df8704a0c66967f7fff66e2,NILANJ OPTICS ,C2001N0180,19.15400004,72.93202713
5df8704a0c66967f7fff66e5,OZONE OPTICALS,C2004O0265,13.00673765,77.50543356
5df8704a0c66967f7fff66e8,KHUSHI OPTICAL,C2009K0075,22.29121338,70.78283574
5df8704a0c66967f7fff66eb,OPTICAL STOP GORAI,C2001O0129,19.22836035,72.82994594
5df8704a0c66967f7fff66ef,SARDARJI OPTICALS,C2001S0609,19.88464126,75.32929804
5df8704a0c66967f7fff66f7,GRAND OPTICAL,C2001G0162,19.28144473,72.85879277
5df8704a0c66967f7fff66f9,AL-FALEH OPTICALS,C2001A0238,19.10602717,72.89402157
5df8704a0c66967f7fff66fa,NAIN OPTICAL,C2021N0111,19.15867184,77.30910458
5df8704a0c66967f7fff66fe,SIDDHAKALA OPTICS,C2001S0602,19.19580179,72.97812056
5df8704a0c66967f7fff66ff,KRISHNA OPTICS,C2001K0097,19.4161085,72.82773044
5df8704a0c66967f7fff6701,AMRUTA ENTERPRISES ,C2021A0098,19.87097835,75.34644339
5df8704a0c66967f7fff6704,SHREE BALAJI OPTICALS ,C2021S0303,19.8769383,75.3469681
5df8704a0c66967f7fff6708,RAKSHA EYE CARE,C2004R0272,12.97596173,77.53136817
5df8704a0c66967f7fff670e,MAHAVIR OPTICS,C2001M0184,19.2131455,72.82409739
5df8704a0c66967f7fff6711,s k kachi ali,C2005N0217,15.27241562,73.95974737
5df8704a0c66967f7fff6714,OM SAI OPTICS,C2001O0131,19.27365179,72.88215615
5df8704a0c66967f7fff6721,MAHALAXMI OPTICAL ( FURSUNGI ) HADAPSAR ,C2021M0067,18.48466595,73.95575088
5df8704a0c66967f7fff672c,NAYANA OPTIC VIEW,C2004N0278,12.99189738,77.53658205
5df8704a0c66967f7fff672e,SRI PAVAN SAI OPTICALS,C2004S0437,13.05360965,77.50801485
5df8704a0c66967f7fff6733,EYE LAB,C2004E0275,13.07206027,77.52480648
5df8704a0c66967f7fff673a,R K OPTICS,C2004R0277,12.95660477,77.65484333
5df8704a0c66967f7fff673c,RENUKA OPTICALS ,C2021R0076,19.90168884,75.35568595
5df8704a0c66967f7fff6740,VISION PLUS ( SATARA ROAD ),C2021V0103,18.46559029,73.85817681
5df8704a0c66967f7fff6748,BHAVNA OPTIKS,C2001B0112,19.15223624,72.93959733
5df8704a0c66967f7fff6750,SUSHMA OPTIC ,C2001S0604,19.13166788,72.92752907
5df8704a0c66967f7fff6753,GANESH EYE CARE AND MEDICALS OPTICIAN,C2004G0288,13.00602354,77.54159644
5df8704a0c66967f7fff6756,OPTICAL EYE VISION ,C2004O0269,13.00875159,77.54325505
5df8704a0c66967f7fff675a,SHIVANAND OPTICAL ,C2021S0290,19.16165043,77.30856981
5df8704a0c66967f7fff675d,EYE MART OPTICALS,C2004E0276,12.95941407,77.70108093
5df8704a0c66967f7fff675f,SUPERB OPTICALS,C2004S0442,12.94829629,77.60187775
5df8704a0c66967f7fff6760,EYE OPTICIONS KONDHAWA ,C2021E0060,18.47838989,73.89024865
5df8704a0c66967f7fff6761,EYE CARE,C2001E0148,19.27967407,72.86034778
5df8704a0c66967f7fff6762,SAWANT OPTICS,C2001S0606,19.44321545,72.82182153
5df8704a0c66967f7fff6765,SWAMI OPTICLS ( BALEWADI) ,C2021S0296,18.57189612,73.78093421
5df8704a0c66967f7fff676b,KRISHNA OPTICALS (BIBEWADI ),C2021K0049,18.50905,73.85687996
5df8704a0c66967f7fff676d,SRI BOBBY OPTICALS,C2004S0429,13.00876531,77.50581175
5df8704a0c66967f7fff6773,ENVISION OPTICALS,C2004E0266,13.02320148,77.63589084
5df8704a0c66967f7fff6775,LEISHA OPTICALS,C2004L0224,13.04922452,77.51739688
5df8704a0c66967f7fff6776,N.H.LALE ENTERPRISES ( NIGDI) ,C2021N0114,18.65906073,73.76892865
5df8704a0c66967f7fff6779,YASHRAJ OPTICALS ,C2021Y0025,19.86813608,75.3672694
5df8704a0c66967f7fff677b,SPECTEYECON ( AUNDH),C2021S0293,18.55377485,73.80942296
5df8704a0c66967f7fff677e,INDIA EYE OPTICS,C2004I0223,13.06802426,77.50616714
5df8704a0c66967f7fff6782,VISHAL OPTICIANS,C2004V0337,12.95634795,77.69637834
5df8704a0c66967f7fff6785,4SIGHT OPTICIANS ,C202140001,19.99018137,73.71292178
5df8704a0c66967f7fff6786,I GATE OPTICS,C2004I0225,12.95717199,77.6995239
5df8704a0c66967f7fff6788,MODERN OPTICALS,C2004M0278,13.04155802,77.5144659
5df8704a0c66967f7fff678a,KAMAL VISION CARE,C2004K0247,13.05975185,77.57725976
5df8704a0c66967f7fff6790,RAJAT OPTICALS,C2004R0273,13.0741096,77.51811638
5df8704a0c66967f7fff6796,LIFE LINE HOSPITAL,C2004L0223,13.01372054,77.52084922
5df8704a0c66967f7fff6797,PALAK OPTICS,C2001P0195,19.25664428,72.86147129
5df8704a0c66967f7fff679d,EYE LIFE OPTICIANS,C2004E0278,12.97822814,77.63631999
5df8704a0c66967f7fff67a0,PRAVIN OPTICIAN,C2001P0196,19.45978971,72.81480487
5df8704a0c66967f7fff67a4,SHREYASH OPTICIAN,C2001S0598,19.09627049,72.8956024
5df8704a0c66967f7fff67ae,PURNDAR CHASMAGHAR ,C2021P0095,18.48308082,73.95389412
5df8704a0c66967f7fff67af,THE LENSHOP,C2004T0225,13.07994332,77.55921319
5df8704a0c66967f7fff67bf,SATYAM POTICIANS,C2009S0264,23.05403928,72.59569589
5df8704a0c66967f7fff67c6,TRINETRA OPTICALS (PIMPRI) ,C2021T0019,18.62543153,73.80510595
5df8704a0c66967f7fff67cb,RAM OPTICAL ,C2021R0077,19.90011131,75.35648592
5df8704a0c66967f7fff67d6,DIVINE OPTIC,C2009D0097,22.27247575,70.77258267
5df8704a0c66967f7fff67de,RAINBOW OPTICALS ,C2021R0078,19.86684012,75.35408098
5df8704a0c66967f7fff67df,SURBHI OPTICS,C2001S0610,19.45137807,72.81332765
5df8704a0c66967f7fff67e0,SUPERB OPTICALS,C2004S0438,12.94317997,77.59702966
5df8704a0c66967f7fff67e9,PYRAMID OPTIC,C2021P0097,18.48127499,73.92860759
5df8b7000c66967f7fff7267,AGGARWAL EYE CARE (PARLE),C2001A0021,19.10989598,72.84947008
5df8b7000c66967f7fff7268,ASHISH OPTICAL,C2001A0068,0,0
5df8b7000c66967f7fff7269,ACE EYE CARE (SANTACRUZ),C2001A0441,19.08797356,72.83807136
5df8b7000c66967f7fff726a,BANDARKAR OPTICS,C2001B0052,19.42599763,72.81849794
5df8b7000c66967f7fff726b,CHAMUNDA OPTICIAN,C2001C0007,19.41341312,72.82588374
5df8b7000c66967f7fff726c,CHIMERA EYE CARE,C2001C0016,0,0
5df8b7000c66967f7fff726d,CLEAR VISION (J.B.NAGAR),C2001C0028,19.11075451,72.86672004
5df8b7000c66967f7fff726e,COMFORT OPTICS,C2001C0387,19.24683257,72.85077464
5df8b7000c66967f7fff726f,DEEPAK OPTICIANS (SAKINAKA),C2001D0017,19.10462656,72.88665086
5df8b7000c66967f7fff7270,DRASHTI OPTICS (MIRAROAD),C2001D0043,19.27474619,72.86391746
5df8b7000c66967f7fff7271,EYE LOOK OPTICS,C2001E0017,19.20252254,72.82806572
5df8b7000c66967f7fff7272,EYE WORLD (BANDRA),C2001E0268,19.05514454,72.83191368
5df8b7000c66967f7fff7273,EYECARE OPTICIANS (SAKINAKA),C2001E0517,19.10335742,72.8878089
5df8b7000c66967f7fff7274,GLANCE OPTICIANS,C2001G0030,19.0621689,72.90050246
5df8b7000c66967f7fff7276,GANDHI OPTIC`S [MIRA RD],C2001G0099,19.2804162,72.87056331
5df8b7000c66967f7fff7277,GAWADE OPTICALS (PEN),C2001G0299,18.73701408,73.09589267
5df8b7000c66967f7fff7279,JAY OPTIC (MAZGAON),C2001J0016,18.97235097,72.83690192
5df8b7000c66967f7fff727a,NEW LUCKY OPTICIANS (MULUND),C2001L0021,19.17284035,72.95450538
5df8b7000c66967f7fff727b,MEHUL OPTICIANS,C2001M0046,19.09996654,72.84448989
5df8b7000c66967f7fff727c,MEHUL OPTOCIANS (JOGESHWARI),C2001M0080,19.13695386,72.85456561
5df8b7000c66967f7fff727d,NAYAN OPTICS (JOGESHWARI),C2001N0012,19.136862,72.85429738
5df8b7000c66967f7fff727e,OPTIC ZONE (GOREGAON),C2001O0512,19.16331215,72.84102414
5df8b7000c66967f7fff727f,POONAM OPTICS (BO),C2001P0039,19.22939965,72.85948645
5df8b7000c66967f7fff7280,RAJAN OPTIC ( GOREGAON),C2001R0020,19.17621073,72.86837496
5df8b7000c66967f7fff7281,REGAL OPTICIANS,C2001R0039,19.06598423,72.87890062
5df8b7000c66967f7fff7283,SEE CLEAR OPTICS (ANDHERI),C2001S0038,0,0
5df8b7000c66967f7fff7284,SHIKHA OPTICS (NALLASOPARA),C2001S0060,19.4163621,72.82292962
5df8b7000c66967f7fff7285,SHRINATH OPTICS,C2001S0094,19.21299385,72.84052592
5df8b7000c66967f7fff7286,SOHAM OPTICS (BORIVALI),C2001S0108,19.21725525,72.84987509
5df8b7000c66967f7fff7287,STAR VISION OPTICS (BHANDUP),C2001S0125,19.14507729,72.93632872
5df8b7000c66967f7fff7289,SAHELI OPTIC (ANDHERI),C2001S0501,19.1187522,72.84840927
5df8b7000c66967f7fff728a,SHIVAM OPTICS GOREGAON,C2001S0668,19.16836182,72.8423924
5df8b7000c66967f7fff728b,TEE TEE OPTICALCO. [THANE],C2001T0002,19.18084422,72.97307331
5df8b7000c66967f7fff728c,VISION TECH OPTICS (ANDHERI),C2001V0517,19.12114993,72.85002161
5df8b7000c66967f7fff728d,NAYAN OPTICS KURLA E,C2018N0005,19.06269367,72.88309526
5df8b7000c66967f7fff728e,BHUSHAN OPTICALS ,C2022B0005,19.97358165,73.84025227
5df8b7000c66967f7fff728f,CLASSIC OPTICIAN[NSK RD],C2022C0005,19.95261131,73.83912675
5df8b7000c66967f7fff7290,CLASSIC OPTICIAN [PAWAN NAGAR],C2022C0007,19.9760335,73.75600543
5df8b7000c66967f7fff7291,CHAUDHARI OPTICIANS,C2022C0014,19.98922649,73.71394915
5df8b7000c66967f7fff7292,DHANDAI OPTICALS,C2022D0012,20.00698285,73.79926175
5df8b7000c66967f7fff7293,DELUXE OPTICALS,C2022D0014,20.00559508,73.78570955
5df8b7000c66967f7fff7294,EYE SQUARE OPTICS & CONTACT LENS CLINIC,C2022E0003,20.00226376,73.77323359
5df8b7000c66967f7fff7295,MILIND ENTERPRISES [PAWAN NAGAR],C2001M0155,19.98291617,73.75622168
5df8b7000c66967f7fff7296,GAURI OPTICIAN,C2022G0013,19.92629525,73.83290067
5df8b7000c66967f7fff7297,HINDUSTHAN WATCH & OPTICAL COMPANY,C2022H0002,19.90198707,73.82962067
5df8b7000c66967f7fff7298,JAYA OTICIANS [NSK RD],C2022J0001,19.95604232,73.83468937
5df8b7000c66967f7fff7299,KULSWAMINI NETRA SEVA,C2022K0002,19.9753951,73.75586361
5df8b7000c66967f7fff729a,KULSHREE NETRASEVA,C2022K0014,19.98122759,73.81911814
5df8b7000c66967f7fff729b,MANAS MEDICALS & OPTICS,C2022M0001,20.00704838,73.78968459
5df8b7000c66967f7fff729c,MAHER OPTICS (SATPUR),C2022M0015,19.98426444,73.72259349
5df8b7000c66967f7fff729d,NAYANA OPTICIAN,C2022N0009,19.98090021,73.75654522
5df8b7000c66967f7fff729e,NEW DOLLY OPTICIANS [N.S. ROAD],C2022N0013,19.95138694,73.83743461
5df8b7000c66967f7fff729f,NIRMAL OPTICIAN,C2022N0016,19.95248525,73.83839048
5df8b7000c66967f7fff72a0,NEW RAMESH OPTICIANS,C2022N0017,20.00454283,73.78594324
5df8b7000c66967f7fff72a1,DESHPANDES OPTIVIEW OPTICIAN,C2022O0003,20.00514709,73.78420014
5df8b7000c66967f7fff72a2,PUJA CHASHMAGHAR &WATCH COMPANY,C2001P0173,19.98991544,73.73341653
5df8b7000c66967f7fff72a3,PARSHWA OPTICALS CONTACT LENSE CLINIC,C2022P0010,20.00262355,73.77134733
5df8b7000c66967f7fff72a4,RAMESH OPTICIANS M G ROAD,C2022R0022,20.00447037,73.7857575
5df8b7000c66967f7fff72a5,SAMAY OPTICALS ,C2022S0008,20.00607301,73.78837131
5df8b7000c66967f7fff72a6, SHRI SHIVRAM CHASMAGHAR [NSK RD],C2022S0013,19.9724085,73.840666
5df8b7000c66967f7fff72a7,SHREENATH OPTICIANS [NASHIK ROAD],C2022S0017,19.95192459,73.83657631
5df8b7000c66967f7fff72a8,SAI OPTICALS (GANGAPUR RD),C2022S0048,20.01486848,73.75489868
5df8b7000c66967f7fff72a9,SHRIJI DESHPANDE J OPTICS ( INDIRA NAGAR),C2001S0491,19.97200799,73.78517043
5df8b7000c66967f7fff72aa,UNIQUE VISION OPTICIAN,C2022U0001,19.98058071,73.80095422
5df8b7000c66967f7fff72ab,VENUS OPTICIANS [NASHIK ROAD,C2022V0002,19.95146856,73.83977953
5df8b7000c66967f7fff72ac,VILAS OPTICIANS,C2022V0005,20.00235922,73.78793243
5df8b7000c66967f7fff72ad,VISION EYE CARE PANCHAVATI,C2022V0014,20.01162273,73.80470194
5df8b7000c66967f7fff72ae,YOGESH OPTICALS,C2022Y0001,20.01191382,73.75923749
5df8b7000c66967f7fff72af,BABLOO FITTER MULUND,C2023B0003,19.17413778,72.95415603
5df8b7000c66967f7fff72b0,CLEAR OPTICS (MULUND[WEST]),C2023C0009,19.18797715,72.9754578
5df8b7000c66967f7fff72b1,DEVI OPTICIAN ( THANE ),C2023D0027,19.18018398,72.97271926
5df8b7000c66967f7fff72b2,DISHA OPTICS GHATKOPAR,C2023D0032,19.09580412,72.90202931
5df8b7000c66967f7fff72b3,HOMI OPTICIANS THANE,C2023H0015,0,0
5df8b7000c66967f7fff72b4,I CARE OPTICS,C2023I0004,0,0
5df8b7000c66967f7fff72b5,JAINAM EYE CARE,C2023J0019,19.18986382,72.97701113
5df8b7000c66967f7fff72b6,SIMANDHAR OPTICS (MULUND),C2023S0011,19.17359341,72.953748
5df8b7000c66967f7fff72b7,VISION CARE OPTICIANS CONTECT LENS CLINIC,C2023V0030,19.1708839,72.9541634
5df8b7000c66967f7fff72b8,ARIHANT OPTICAL BHAYANDER,C2024A0014,19.3073587,72.85173252
5df8b7000c66967f7fff72b9,EYE CARE MIRA RD,C2024E0008,19.27985319,72.86096334
5df8b7000c66967f7fff72bb,J.K. OPTICAL (MIRA ROAD),C2024J0004,19.27898795,72.86317885
5df8b7000c66967f7fff72bc,JINI OPTICS (MIRA ROAD),C2024J0010,19.27901865,72.86724038
5df8b7000c66967f7fff72bd,JYOTI OPTICAL NALLASOPARA,C2024J0015,19.40989014,72.82662235
5df8b7000c66967f7fff72be,L.J.OPTICS (BY),C2024L0004,19.30411315,72.8503827
5df8b7000c66967f7fff72bf,MOUNT VISION BHY,C2024M0037,19.30889491,72.86022507
5df8b7000c66967f7fff72c0,OM OPTICIAN,C2024O0002,19.28088204,72.87167106
5df8b7000c66967f7fff72c1,RAILENS OPTICS MIRA ROAD,C2024R0017,19.28358468,72.86613263
5df8b7000c66967f7fff72c2,AINAK EYEWEAR AIROLI,C2025A0014,19.17201065,72.95848276
5df8b7000c66967f7fff72c3,SPECS N LENS,C2025S0035,19.0620224,72.8979307
5df8b7000c66967f7fff72c4,DRUSHTI EYENATION,C2026D0007,19.1896941,72.94899847
5df8b7000c66967f7fff72c6,AKSH OPTICS KAN,C2028A0015,19.21051452,72.82405481
5df8b7000c66967f7fff72c7,ARIHANT OPTICIANS DAHISAR,C2028A0017,19.23025357,72.85653692
5df8b7000c66967f7fff72c8,AMIT OPTIX DAHISAR,C2028A0020,19.24895391,72.85965951
5df8b7000c66967f7fff72c9,BHARAT OPTICS (BORIVALI),C2028B0005,19.22778203,72.8567308
5df8b7000c66967f7fff72ca,BRIGHT OPTICIANS CONTACT LENS CLINIC(DAHISAR),C2028B0007,19.25315242,72.86009163
5df8b7000c66967f7fff72cb,CLASSIC OPTICIANS ( BORIVALI),C2028C0009,19.2287358,72.85147034
5df8b7000c66967f7fff72cc,DECENT OPTICIANS,C2028D0002,19.25106777,72.86059421
5df8b7000c66967f7fff72cd,DEV OPTICS GORAI,C2028D0012,19.21488359,72.83995257
5df8b7000c66967f7fff72d0,EKSAR OPTICS BORIVALI,C2028E0015,19.23053719,72.84739205
5df8b7000c66967f7fff72d1,GOPI OPTICS (KANDIVALI),C2028G0011,19.20000031,72.84512658
5df8b7000c66967f7fff72d2,GURUKRUPA OPTICALS,C2028G0013,19.22404161,72.85530522
5df8b7000c66967f7fff72d3,GALAXY OPTISION,C2028G0014,19.20348317,72.84950159
5df8b7000c66967f7fff72d5,JITEN OPTICIAN (KANDIVALI),C2028J0008,19.20377238,72.85006476
5df8b7000c66967f7fff72d6,KIRAN OPTICAL (KANDIVALI),C2028K0008,19.2023351,72.85084471
5df8b7000c66967f7fff72d7,NETRA OPTICS (KANDIVALI),C2028N0003,19.21159921,72.84137584
5df8b7000c66967f7fff72d8,NEW EYE OPTIC (KANDIVALI),C2028N0018,19.19824904,72.84397893
5df8b7000c66967f7fff72d9,OPTIC WORLD (KANDIVALI),C2028O0002,19.2099935,72.8674825
5df8b7000c66967f7fff72da,OPTIC PALACE BORIVALI,C2028O0009,19.22904383,72.84448151
5df8b7000c66967f7fff72db,OPTIKA KANDIVALI,C2028O0011,19.2104417,72.83953752
5df8b7000c66967f7fff72dc,PAREKH OPTICIANS,C2028P0004,19.20853928,72.85058041
5df8b7000c66967f7fff72dd,PAREKH OPTICS (NO.7 KANDIWALI),C2028P0005,19.20371589,72.84017488
5df8b7000c66967f7fff72de,PLUTO (K),C2028P0012,19.20301109,72.8447343
5df8b7000c66967f7fff72df,RUTESH OPTIC BORIVALI,C2028R0010,19.2247688,72.865563
5df8b7000c66967f7fff72e0,RAJ OPTICAL (KANDIVALI),C2028R0014,19.21536208,72.82900068
5df8b7000c66967f7fff72e2,SHREE KRISHNA OPTICAL CONTACT LENS CLINIC(BO),C2028S0035,19.23432889,72.86409549
5df8b7000c66967f7fff72e3,VIEW POINT,C2028V0003,19.25381142,72.86054559
5df8b7000c66967f7fff72e4,VIJAY OPTICIANS (DAHISAR),C2028V0005,19.24254819,72.86701038
5df8b7000c66967f7fff72e5,VIRESH OPTICS (KANDIWALI),C2028V0012,19.20550224,72.84273271
5df8b7000c66967f7fff72e6,VISION PLUS (BORIVLI),C2028V0021,19.25054423,72.84726162
5df8b7000c66967f7fff72e7,VENUS OPTICS,C2028V0024,19.21688452,72.84146469
5df8b7000c66967f7fff72e8,VIHAN S EYE CARE,C2028V0025,19.2172027,72.84987476
5df8b7000c66967f7fff72ea,MIRA OPTICS,C2029M0009,19.12433477,72.84064427
5df8b7000c66967f7fff72eb,TEJVISION OPTICS,C2029T0002,19.16307273,72.84871269
5df8b7000c66967f7fff72ed,ACURA VISION,C2004A0253,12.96173519,77.52112716
5df8b7000c66967f7fff72ee,EYE WORLD OPTICIANS ,C2004E0241,12.91388214,77.60849342
5df8b7000c66967f7fff72ef,EYE PLUS OPTICIANS,C2004E0246,13.05359855,77.63169788
5df8b7000c66967f7fff72f0,HIND EYE VISION,C2040H0001,12.92061306,77.57680748
5df8b7000c66967f7fff72f1,MEENAA OPTICALS,C2004M0260,12.99540931,77.57132336
5df8b7000c66967f7fff72f2,REFLECT OPTICALS MALLESHWARAM,C2004R0232,12.99627046,77.57182091
5df8b7000c66967f7fff72f3,SAI OPTICALS,C2004S0305,13.00404475,77.54921195
5df8b7000c66967f7fff72f4,VIJAI OPTICIANS,C2004V0252,12.98980758,77.53793601
5df8b7000c66967f7fff72f5,EAGAL VISION OPTICALS,C2041E0008,13.00203154,77.63316941
5df8b7000c66967f7fff72f6,VIJAI OPTICIANS,C2041V0012,12.97328004,77.53794495
5df8b7000c66967f7fff72f9,GOA OPTICIAN,C2005G0018,15.58879868,73.81330915
5df8b7000c66967f7fff72fa,OM SAI OPTICS,C2005O0216,15.5917594,73.8115034
5df8b7000c66967f7fff72fc,SIRA OPTICIAN,C2005S0016,15.60043787,73.9419556
5df8b7000c66967f7fff72fd,S OPTICIAN,C2005S0272,15.54055535,73.81845865
5df8b7000c66967f7fff7300,C MAXOPTICALS,C2092C0001,22.32096002,73.15921225
5df8b7000c66967f7fff7301,NETRA OPTICALS (MANJAL PUR),C2092N0002,22.27844896,73.19636481
5df8b7000c66967f7fff7302,CHAKSHUM OPTICIANS (KARVENAGAR),C20011C013,18.48892903,73.8141128
5df8b7000c66967f7fff7303,KAPIL OPTICIAN (PUNE),C20011K002,18.62556561,73.80499765
5df8b7000c66967f7fff7304,NAINA OPTICIANS(PIMPRI),C20011N001,18.62553288,73.80517066
5df8b7000c66967f7fff7305,VARDHAMAN OPTICAL & APPAREL CO,C20011V002,18.51836774,73.84999003
5df8b7000c66967f7fff7307,ASHAPURI OPTICIANS PIMPRI,C2021A0033,18.62067469,73.80176276
5df8b7000c66967f7fff7308,ADITYA OPTICS NANDED,C2021A0034,19.15909971,77.3094717
5df8b7000c66967f7fff7309,ARYAN OPTICALS CHINCHWAD,C2021A0045,18.62763037,73.78315712
5df8b7000c66967f7fff730a,ANAND OPTICALS (NEW SANGVI),C2021A0065,18.5817402,73.8158254
5df8b7000c66967f7fff730b,AKANKSHA OPTICS WAKAD,C2021A0068,18.59479835,73.77373785
5df8b7000c66967f7fff730c,BALAJI OPTICIANS (KOTHRUD),C2021B0003,18.50381157,73.82084086
5df8b7000c66967f7fff730d,BHARAT OPTICIANS(CAMP),C2021B0005,18.51139239,73.87691403
5df8b7000c66967f7fff730e,BHARAT OPTICIANS (PIMPRI),C2021B0006,18.62008491,73.80383022
5df8b7000c66967f7fff730f,CLASSIC OPTICIANS & EYE CENTRE ( NAVI PETH) ,C2021C0019,18.51006834,73.84336229
5df8b7000c66967f7fff7310,CLEAR VISION (KHADAKI),C2021C0021,18.56544178,73.84982876
5df8b7000c66967f7fff7311,CRISTAL EYES OPTIC (HADPSAR),C2021C0028,18.50155899,73.93143354
5df8b7000c66967f7fff7312,DR AGARWALS HEALTH CARE LTD,C2021D0059,0,0
5df8b7000c66967f7fff7315,FOCUS OPTICIANS(BIBEWADI),C2021F0005,18.47079102,73.86391506
5df8b7000c66967f7fff7316,GLOBLE OPTICLAS (PIMPRI),C2021G0026,18.63322454,73.80927579
5df8b7000c66967f7fff7318,GLOBLE OPTICALS HADPDAR,C2021G0037,18.49044377,73.931759
5df8b7000c66967f7fff7319,GURUKRUPA OPTICAL NANDED,C2021G0048,19.15290927,77.31430136
5df8b7000c66967f7fff731a,G M OPTICALS,C2021G0068,0,0
5df8b7000c66967f7fff731b,I MAX THE OPTIC ( KARVENAGAR),C2021I0007,18.49111782,73.82257065
5df8b7000c66967f7fff731c,ISHAN OPTICIANS BHOSARI,C2021I0015,18.62053068,73.85372736
5df8b7000c66967f7fff731d,I CARE WANWADI,C2021I0018,18.49341755,73.89989239
5df8b7000c66967f7fff731e,ICON OPTICALS,C2021I0026,18.50780211,73.8294594
5df8b7000c66967f7fff7320,JAI BHAVANI OPTICALS (NANDED),C2021J0014,19.15880169,77.30746809
5df8b7000c66967f7fff7321,KING OPTICS (S.B. ROAD),C2021K0004,18.53933589,73.82969107
5df8b7000c66967f7fff7322,KRRISH OPTICALS (CHINCHWAD),C2021K0026,18.62709363,73.78236649
5df8b7000c66967f7fff7324,MAX VISION OPTICIANS (KONDHWA),C2021M0008,18.46930499,73.88930233
5df8b7000c66967f7fff7325,MEDIVISION OPTICS (AUNDH),C2021M0015,0,0
5df8b7000c66967f7fff7326,MAHESH OPTICAL (NANDED),C2021M0032,19.15839947,77.3069635
5df8b7000c66967f7fff7327,NETRAM OPTICIANS ( FATIMANAGAR),C2021N0001,18.50668869,73.9006687
5df8b7000c66967f7fff7328,NATIONAL OPTICIANS (PIMPRI),C2021N0006,18.6256908,73.80512719
5df8b7000c66967f7fff7329,NETRADEEP OPTICIANS (NEW SANGVI),C2021N0018,18.585354,73.82203946
5df8b7000c66967f7fff732b,NETRAKSHA OPTIC BIBVEWADI,C2021N0064,18.46547416,73.86448004
5df8b7000c66967f7fff732c,NEW VISION OPTICALS PIMPRI,C2021N0078,18.6256007,73.798769
5df8b7000c66967f7fff732e,OM OPTICALS HADPSAR,C2021O0030,18.49973945,73.94606751
5df8b7000c66967f7fff732f,OPTOM EYES CHINCHWAD,C2021O0032,18.63362304,73.78685264
5df8b7000c66967f7fff7330,OMKAR OPTICS (NAVI SANGVI),C2021O0033,18.57888053,73.81572051
5df8b7000c66967f7fff7331,OMEGA OPTICS (GOKHALENAGAR),C2021O0045,18.52921478,73.83236922
5df8b7000c66967f7fff7332,OPTI LAB EYE CARE BANER,C2021O0052,18.55773307,73.79296411
5df8b7000c66967f7fff7333,OPTOSIGHT EYE CARE JM ROAD,C2021O0066,0,0
5df8b7000c66967f7fff7334,OPTICALS WINGS,C2021O0067,18.51635977,73.85490485
5df8b7000c66967f7fff7335,PREMIER EYE CONTACT LENS CLINIC B WADI,C2021P0028,18.46766787,73.86414304
5df8b7000c66967f7fff7336,PAWAN OPTICIANS,C2021P0036,18.57327544,73.81856494
5df8b7000c66967f7fff7337,PRIYANKA OPTICIANS (PASHAN-SUS RD),C2021P0047,18.54407175,73.78140801
5df8b7000c66967f7fff7339,PRAKASH CHASHMEWALA (WAKAD),C2021P0072,18.59446804,73.7631419
5df8b7000c66967f7fff733a,RUBY OPTICIANS (CHINCHWAD),C2021R0005,18.6392914,73.79409511
5df8b7000c66967f7fff733b,R.K. EYE CARE (BHAWANI PETH),C2021R0015,18.5111096,73.87419275
5df8b7000c66967f7fff733c,RENUKA SCEINTIFIC OPTICIAN (NANDED),C2021R0039,19.1516994,77.30934899
5df8b7000c66967f7fff733d,SAI OPTICIANS (PIMPRI),C2021S0023,18.6154543,73.80364817
5df8b7000c66967f7fff733e,SUNNY OPTICIANS(AUNDH),C2021S0030,18.54677132,73.81960188
5df8b7000c66967f7fff733f,SIGHT OPTICS (F.C. ROAD),C2021S0037,18.52652619,73.84254942
5df8b7000c66967f7fff7341,SHARP SIGHT OPTICS (WAKAD ROAD),C2021S0096,18.58862721,73.78130889
5df8b7000c66967f7fff7342,SHREE SAMARTH OPTICALS HADPSAR,C2021S0111,18.49990073,73.94429267
5df8b7000c66967f7fff7343,SHRADDHA OPTICIAN PIMPLE GURAV,C2021S0112,18.58627473,73.81520173
5df8b7000c66967f7fff7344,SHREE OPTICALS (NANDED),C2021S0154,19.15783763,77.30956323
5df8b7000c66967f7fff7345,SWATI OPTICIANS (NANDED),C2021S0172,19.15854009,77.30826739
5df8b7000c66967f7fff7346,SAHIL OPTICALS & CONTACT LENS CLINIC,C2021S0174,18.60011921,73.77545701
5df8b7000c66967f7fff7347,SAI CHASHMA,C2021S0215,18.5166432,73.8560573
5df8b7000c66967f7fff7348,SHRI LAXMI NURSINHA OPTICL,C2021S0227,19.15826645,77.30713382
5df8b7000c66967f7fff7349,TEJ OPTICS (AUNDH),C2021T0008,0,0
5df8b7000c66967f7fff734a,TEJ ENTERPRISES,C2021T0010,20.00537392,73.78587384
5df8b7000c66967f7fff734c,WORLD OPTIC (NIGDI),C2021W0004,18.65593848,73.76977086
5df8c329775382117641690c,HEMAOPTICALS,C2102H0003,17.7401696,83.25107664
5dfa2f2d775382117641690d,LENSMART.NET,C2102L0003,17.74989942,83.25423125
5e03127f4253632ee6a2eb33,NEW SPECTO OPTICS,C2021N0119,18.56726325,73.91857814
5e049f434253632ee6a2eb39,LOOK VISION,C2001L0074,19.16099328,72.83963107
5e04a9124253632ee6a2eb3a,PRASAD OPTICALS,C2102P0002,17.74347275,83.31488337
5e05b4204253632ee6a2eb3b,SHRI AKSHAYA OPTICS ,C2010S0160,17.38825162,78.47882867
5e09b0664253632ee6a2eb3d,NATURE EYE CARE,C2001N0184,19.0864939,72.91331436
5e0d92bb4253632ee6a2eb40,MAYUR OPTICALS,C2021M0070,19.88049329,75.32593958
5e0de7184253632ee6a2eb43,BHAGWATI OPTICAL,C2021B0044,19.87070308,75.36685836
5e0ee6be4253632ee6a2eb44,ANURADHA EYE CLINIC AND OPTICAL,C2010A0056,17.74975445,83.21867723
5e0eeaa24253632ee6a2eb45,VISION PRO OPTICALS ,C2102V0015,17.7452514,83.22383612
5e1057ea9cb9235b8b071e60,NEW GIRIJA DEVI OPTI,C2021N0121,19.8649406,75.31625714
5e13137c9cb9235b8b071e64,SHRI JAGDAMBA OPTICAL ,C2021S0315,18.51588225,73.85478482
5e144e4c9cb9235b8b071e67,OUTLOOK OPTICAL WORKS ( CHANDAN NAGAR ),C2021O0094,18.56267887,73.92891873
5e1485d80742330664fb9b0d,DR.ROY EYE CLINIC (WARJE),C2021D0078,18.47801625,73.79822373
5e1819e40742330664fb9b17,GANESH OPTICALS,C2102G0005,17.71230115,83.30416795
5e1858680742330664fb9b1b,RAGHU OPTICIANS,C2004R0244,12.97442529,77.57552123
5e1ececc17d9ea751c8180d0,YASH OPTICAL ( CIDCO) ,C2027Y0003,19.86886353,75.37192069
5e2004bf17d9ea751c8180d1,OPTICAL PALACE ,C2004O0274,13.93762714,75.5697906
5e201f8917d9ea751c8180d2,GURUKRUPA,C2021G0081,19.86869451,75.36719162
5e20268917d9ea751c8180d3,MEGHANA OPTICALS,C2010M0032,17.38856005,78.48392151
5e216d0c6c2bb821a4184175,AADINATH OPTICAL,C2021A0105,19.86662917,75.36094811
5e21871c6c2bb821a4184176,GAURI OPTICALS,C2021G0082,19.87044925,75.38269915
5e21a76678e5604fb3875736,OCCHI EYEWEAR,C2004O0248,13.06324453,77.59157605
5e21aa9c78e5604fb3875738,UTSAV OPTICS,C2001U0502,19.10534572,72.84284234
5e23fa94e73a045e824a19cd,MINU OPTICS,C2001M0187,19.20139156,73.00477769
5e2540bae73a045e824a19ce,VISION FIRST,C2021V0109,19.97997446,73.8043737
5e26c29ee73a045e824a19cf,VISION PLUS OPTICS,C2021V0056,18.52971888,73.8344872
5e270648e73a045e824a19d2,SHARADA OPTICALS ,C2043S0090,13.94016464,75.57464674
5e27e958e73a045e824a19d3,GAWADE OPTICAL SUNGLASS KHOPOLI,C2026G0027,18.78692586,73.34618468
5e27f6cee73a045e824a19d7,NETRIKA,C2021N0043,18.50863478,73.80909573
5e280e99e73a045e824a19dd,DESHMUKH OPTICAL,C2001D0146,19.86976344,75.34631331
5e2812b3e73a045e824a19de,SAMARTH OPTICAL CO,C2001S0015,20.00611428,73.78372137
5e28296e68f53324d0299676,OPTIC HUB PLUS,C2021O0034,18.54999768,73.80939976
5e283a0768f53324d0299677,GAWADE OPTICIANS (MAHAD),C2001G0297,18.0812733,73.42382524
5e285a0f68f53324d0299679,KK CLINICS,C2102K0004,17.74404531,83.26211527
5e29470668f53324d029967c,SARA OPTICIAN,C2001S0452,20.00742013,73.75852603
5e295573b9ae4d366941348d,RE-VISION OPTICAL,C2023R0037,19.19454529,72.97880784
5e296a3fb9ae4d366941348e,SHRINIVAS OPTICS,C2022S0018,20.16872168,73.99130255
5e2a9b05b9ae4d3669413491,SHREE NETRA OPTICS,C2021N0094,18.60637191,73.7732004
5e2aa014b9ae4d3669413492,CITIZEN OPTICALS & CONTACT LENS CLINIC,C2021C0012,18.49462574,73.83499174
5e2aa380b9ae4d3669413493,JAINAM EYE CARE,C2023J0019,19.18986382,72.97701113
5e2aa43cb9ae4d3669413494,DHORJE EYE CARE,C2021D0052,18.491013,73.83291978
5e2abd98b9ae4d3669413495,2LENSESS.COM,C202120001,18.59592644,73.78844306
5e2ad830b9ae4d3669413499,OPTOSIGHT,C2021O0063,18.50033014,73.81416578
5e2ae099b9ae4d366941349b,ANAJI OPTICALS,C2043A0014,13.93898278,75.57129666
5e2bd6ebd0de2a4ff280242e,STAR OPTICAL ,C2021S0313,18.55954246,73.9315483
5e2bdfced0de2a4ff280242f,BHAVSAR OPTICALS,C2022B0009,19.97395789,73.78672577
5e2bf6f2d0de2a4ff2802430,MARUTI OPTICIANS,C2001M0191,19.14745689,72.92857043
5e2c041ad0de2a4ff2802431,SHREE KRUSHAN OPTICAL,C2021S0320,19.86544355,75.36806736
5e2c0494d0de2a4ff2802432,OPTICAL ,C2018O0004,19.0199024,72.8365494
5e2c1c16d0de2a4ff2802433,PERFECT OPTICAL ,C2022P0002,19.99875121,73.78562674
5e2fda9ad1ec4c0c97e62fdb,THE CHASMA GHAR,C2021T0021,18.46620629,73.85785997
5e2fe4fad1ec4c0c97e62fdc,NIKHIL OPTICS (THANE),C2023N0035,19.1895209,72.94535737
5e2fe5c3d1ec4c0c97e62fdd,NEW HUBLI OPTICAL CENTRE (GADAG),C2043N0017,15.42936637,75.63362337
5e2feaf8d1ec4c0c97e62fde,ASIAN OPTICAL,C2001A0525,19.08144879,72.8380603
5e3000ea2b3ceb2300335586,VISION EYE CARE PLUS,C2021V0104,18.65934249,73.7708766
5e3275c8534324509e01e4eb,SHRIKRISHNA OPTICALS (AURANGABAD) ,C2027S0012,19.86181065,75.31444799
5e328fb2534324509e01e4ec,BILIGI OPTICAL,C2049B0002,13.93728071,75.57500805
5e338108534324509e01e4ee,JK EYE CARE ,C2033J0013,21.24432815,81.63372017
5e33d7c2534324509e01e4ef,GURUKRIPA OPTICALS ,C2033G0008,21.23394573,81.65174782
5e34166b534324509e01e4f0,SHREE VETOBA OPTICIANS ,C2001S0587,19.19008769,72.95058668
5e345bfb534324509e01e4f1,NAND OPTICAL,C2361N0001,31.53182359,75.91211222
5e397533534324509e01e4f6,INDIAN OPTIC ,C2009I0007,20.37851858,72.92386349
5e3bb0ef534324509e01e4f7,VENGURLEKAR SCIENTIFIC OPTICIANS ,C2005V0241,16.0111937,73.68500669
5e3bc258534324509e01e4f8,ABHYANKAR OPTICIANS,C2021A0057,18.46211401,73.81484497
5e3bcbfd534324509e01e4fa,SADGURUKRUPA DRUSTI OPTICIAN,C2005S0323,16.01102837,73.68584454
5e3bf067534324509e01e4fb,LEENA OPTICIANS KANKAVLI ,C2005L0218,16.26774529,73.70841332
5e3c021d534324509e01e4fe,PROVISION OPTOMETRY,C2010P0028,17.45716995,78.49926844
5e3d0ae8534324509e01e4ff,SACHIN OPTICIANS,C2005S0324,15.90421851,73.81929919
5e3d0b28534324509e01e500,NAINA OPTICIAN,C2021N0025,18.51534232,73.84782943
5e3d1e7b534324509e01e502,VEERABHADRA OPTICAL,C2049V0001,13.93899865,75.57007441
5e3d38cc534324509e01e503,NAYANA OPTICIANS KUDAL,C2005N0219,16.01084178,73.68582107
5e3d4b55534324509e01e504,DESAI OPTICIANS,C2005D0230,15.81454126,73.8631409
5e3d76ca534324509e01e505,ABHISHEK OPTICALS,C2049A0002,13.93220276,75.56076694
5e3e50e1534324509e01e506,NEW VISION OPTICALS,C2021N0083,18.4924289,73.8213598
5e3e683f534324509e01e50a,PARANJPE BROTHERS,C2021P0034,18.4960905,73.8556897
5e3e791b534324509e01e50c,ANIL OPTICS(BIBWEWADI),C2021A0007,18.4766934,73.86229098
5e410818534324509e01e510,OPTICS MART,C2005O0226,16.05674169,73.47023651
5e4113f6534324509e01e511,ADITHYA OPTICALS,C2043A0015,13.93736779,75.57490557
5e412c79534324509e01e513,LUNETTES THE OPTICAL PEOPLE,C2021L0013,18.57212495,73.88294935
5e414da6534324509e01e515,SUBHASH OPTICIANS ,C2005S0325,15.90577816,73.81943364
5e4252cb534324509e01e516,JAIN OPTICALS ,C2043J0002,15.3490129,75.14567876
5e426100534324509e01e517,JAIN OPTICAL,C2031J0018,26.94271064,75.76179754
5e4261cb534324509e01e518,SHREE SHREE OPTICIAN'S ,C2022S0014,19.9725203,73.77284142
5e42a362534324509e01e51b,RAJESHVARI WATCH AND OPTICIAN,C2021R0082,18.58546285,73.88545856
5e43a795534324509e01e51c,S SAWANT OPTICS,C2005S0326,16.26272271,73.70831408
5e43bc39534324509e01e520,EYE N YOU,C2021E0067,18.59878223,73.79151285
5e43c035534324509e01e521,EAST WEST RAMESH NAGAR,C2014E0001,28.64916857,77.13065676
5e43c3b6534324509e01e522,ANIL OPTICAL CO MZN,C2351A0008,28.9897509,77.7013838
5e43c739534324509e01e524,NISARGDATT OPTICIAN,C2005N0220,16.26785955,73.7081461
5e43db79534324509e01e526,RV OPTICAL GHAZIABAD ,C2003R0274,28.64586917,77.35963002
5e43ed3e534324509e01e527,ANR OPTICALS,C2102A0007,16.51401071,80.63004579
5e43fcb0534324509e01e528,VISIOCARE OPTICALS,C2043V0025,13.61042405,75.51042695
5e44ed46534324509e01e52d,RAJ EYE CARE & OPTICAL CENTER,C2021R0083,19.97391535,73.76635574
5e44f732534324509e01e52e,RUBY OPTICIAN ,C2021R0084,18.65981134,73.77650455
5e4509b6534324509e01e530,KUMAR OPTICALS,C2021K0017,18.5657221,73.8505015
5e450b12534324509e01e531,FZ OPTICAL,C2009F0014,21.17167137,72.81616408
5e451b15534324509e01e533,MALNAD OPTUCAL,C2043M0012,13.93827177,75.5698362
5e4544f6534324509e01e534,SOHAM OPTICALS,C2143S0023,28.58667442,77.04425722
5e454ce3534324509e01e535,EYE LIFE OPTICIAN ,C2043E0013,15.33702131,75.13043102
5e4558e1534324509e01e536,OPTIC PALACE ,C2331O0001,22.35547729,82.70648235
5e455919534324509e01e537,BILASPUR CHASHMA,C2033B0004,22.07492371,82.1544404
5e455d7b534324509e01e538,LAXMI OPTICALS,C2331L0001,22.08110812,82.15639305
5e455eed534324509e01e539,CHASHMA PALACE ,C2331C0005,22.0830885,82.154034
5e456258534324509e01e53a,MIRJI OPTICALS,C2043M0008,15.33819136,75.13785863
5e464521534324509e01e541,TIP TOP OPTICIANS,C2331T0002,21.8932992,83.39203008
5e4645b2534324509e01e542,CARE OPTICALS ,C2143C0001,28.60890498,77.10604823
5e464f19534324509e01e543,SANTOSH BUDHWANI,C2331G0001,22.07474444,82.15901189
5e465184534324509e01e544,IMAGE OPTICALS,C2035I0001,28.67300397,77.43123057
5e465f77534324509e01e545,WAIBHAW LAKSHMI OPTICAL- BILASPUR,C2331W0001,22.0901352,82.1408451
5e468130534324509e01e546,NARAYAN OPTICAL AND VISION CARE,C2038N0017,27.1938824,77.96568828
5e479188534324509e01e547,VASHISHTHA SIGHT CARE,C2035V0016,28.63385545,77.34968364
5e47abbc534324509e01e54b,IMRAN OPTICAL,C2043I0005,13.92727187,75.56952406
5e47c098534324509e01e54d,MAX VISION,C2035M0008,28.68572942,77.44673022
5e47ced8534324509e01e54e,B K ENTERPRISES ,C2321B0012,30.3223289,78.04111663
5e47f163534324509e01e552,IRAM OPTICS,C2043I0006,15.33695244,75.13391186
5e47f5c8534324509e01e554,PRIME VISION DWARKA,C2003P0268,28.56017502,77.0598546
5e47fe18534324509e01e555,CHASHMA CHASHMA EYE OPTICAL,C2043C0010,15.36057532,75.12699109
5e4a39f5534324509e01e55a,KOTA OPTICS,C2031K0013,25.176625,75.84714
5e4a4813534324509e01e55d,K.K.OPTICIANS ,C2351K0001,28.6617304,77.43564193
5e4a4b6f534324509e01e55e,DWARKA OPTICS,C2143D0002,28.58933868,77.08023471
5e4a4c14534324509e01e55f,PRAKASH CHASHMA POINT,C2021P0039,18.47773791,73.86194375
5e4a52d4534324509e01e560,CLASSIC CHASHMAGHAR,C2021C0055,18.50065826,73.93741328
5e4a65c2534324509e01e562,SRI SAI VISION CARE,C2004S0381,13.07012131,77.55527169
5e4a68ca534324509e01e564,THE FRAME HUB,C2291T0003,21.15078984,79.10367575
5e4a70d4534324509e01e566,SUNYAN CHASMA GHAR BILASPUR,C2331S0005,22.08607184,82.15319012
5e4a759a534324509e01e567,PRAGATI OPTICIANS,C2001P0512,19.11194372,72.85025525
5e4a778f534324509e01e568,PACKARD OPTICALS AND TIMEPIECES,C2003P0256,13.03015026,77.57071082
5e4a820a534324509e01e569,NAINA OPTICAL-BILASPUR,C2331N0003,22.08286586,82.15647485
5e4a8e6e534324509e01e56b,VISION CARE OPTICALS ,C2043V0026,15.36298518,75.12139902
5e4a930d534324509e01e56d,KESHRI NANDAN,C2331S0008,22.0734671,82.1573073
5e4ac949534324509e01e56e,SITAPUR OPTICALS,C2003S0411,29.92814666,77.58224096
5e4b7dbc534324509e01e56f,SHARMA OPTICALS,C2030S0004,28.626662,77.29954705
5e4b98c6534324509e01e572,GUPTA OPTICALS,C2300G0002,28.47443834,77.30844026
5e4bb617534324509e01e573,SHARADCHANDRA OPTICS,C2005S0327,16.25912395,73.71993642
5e4bbcee534324509e01e574,KIRAN OPTICALS (SITAPUR),C2032K0008,27.56344045,80.67520715
5e4bd1e3534324509e01e576,MOHINDRA OPTICALS ,C2036M0029,30.26455325,75.23485301
5e4bd627534324509e01e577,NAWAL OPTICAL MEERUT,C2351N0002,28.96441584,77.73870494
5e4bda4a534324509e01e578,INDIAN OPTICAL ,C2322I0002,25.4435245,81.83670656
5e4be193534324509e01e579,ALUKKAS VISION ARK,C2021A0106,18.60450066,73.90973389
5e4be60f534324509e01e57a,SHUBH ENTERPRISES BILASPUR,C2033S0078,22.07554386,82.16869567
5e4bf352534324509e01e57b,EYELAND OPHTHALMIC OPTICIANS-NAGPUR,C2291E0002,21.16401229,79.07972496
5e4cc9d2534324509e01e57f,VENUS OPTICIANS,C2301V0008,28.98028959,77.71013238
5e4cd104534324509e01e580,JAWAHAR OPTICIANS,C2043J0008,15.4322232,75.63540464
5e4cd833534324509e01e583,FRIENDS OPTICAL,C2003F0220,28.53690071,77.26452392
5e4cdcb7534324509e01e584,NEW LIGHT OPTICIANS MEERUT,C2351N0003,28.9965263,77.70603094
5e4ce413534324509e01e585,GKS EYE CARE,C2021G0083,18.57039952,73.87842346
5e4ce712534324509e01e587,GUJARAT OPTICIANS,C2043G0008,15.43441518,75.63711911
5e4cf891534324509e01e58b,DRISHTI EYE CARE,C2030D0010,28.64689297,77.28652887
5e4d0152534324509e01e58c,BHARGAVA OPTICIANS ,C2037B0004,25.32376557,82.99467189
5e4d0967534324509e01e58d,POOJA OPTICAL ,C2382P0001,25.46446732,78.5390446
5e4d0e56534324509e01e58e,BALAJI OPTICALS GADAG,C2043B0003,15.43097027,75.63460024
5e4d105f534324509e01e58f,SHYAM OPTICAL MADHU VIHAR,C2030S0008,28.63503358,77.30327748
5e4d280b534324509e01e595,B N BAIJAL OPTICIANS,C2032B0026,26.85010679,80.93159549
5e4d2946534324509e01e596,MARUTHI OPTICAL,C2043M0006,15.43038464,75.64459506
5e4d35eb534324509e01e597,VASANT OPTICALS (NAGPUR),C2291V0001,21.133684,79.06122417
5e4e1db1534324509e01e599,KATWE OPTICIANS (KISHOR),C2043K0008,15.35258924,75.13938197
5e4e2fb0534324509e01e59d,OPTIC VISION,C2005O0227,12.86116994,74.83699836
5e4e3d22534324509e01e59e,H.K.OPTICS,C2043H0009,15.3494881,75.14178383
5e4e4846534324509e01e5a0,AB OPTIQUE EYE EAR AND SPEECH PVTLTDBASANTLOK,C2003O0254,28.55782123,77.16420595
5e4e4985534324509e01e5a1,OPTIC HOME ,C2043O0012,15.34755968,75.14546401
5e4e4c6e534324509e01e5a2,DIMPLE OPTICAL GOMTI NAGAR,C2032D0017,26.85237833,80.9987
5e4e4e15534324509e01e5a3,SHRI RAJLAXMI OPTICS,C2043S0017,15.35086706,75.1454705
5e4e6fbe534324509e01e5a4,OPTIC WORLD,C2036O0031,30.86078349,75.85849989
5e4e787c534324509e01e5a5,SAPNA OPTICALS,C2043S0091,13.92811373,75.57515636
5e4e7c72534324509e01e5a6,OMKAR E SWAR ENTERPRISES,C2043O0019,15.34966239,75.11135515
5e4e88b2534324509e01e5a7,D.K. OPTICAL GALLERY,C2043D0001,15.35035027,75.11042955
5e4e89e8534324509e01e5a8,DHIRAJ OPTICAL ,C2036D0044,31.21580149,75.77741212
5e4f7435534324509e01e5aa,HUBLI SMART VISION,C2043H0015,15.35267664,75.13922162
5e4f9c0b534324509e01e5ac,GREDUATE OPTICIAN ( RIHAND NAGAR),C2032G0025,24.11655348,82.69160338
5e4fd0a1534324509e01e5af,LE OPTICO,C2005L0216,12.86138306,74.84507818
5e50e115534324509e01e5b5,ENN OPTICALS,C2036E0013,31.12624263,76.12051502
5e50e302534324509e01e5b6,SAI OPTICALS TILAKAWDI,C2043S0013,15.83448962,74.50656395
5e50ec8f534324509e01e5b7,PHATAK OPTICIANS,C2047P0002,15.85670561,74.51245552
5e50ede5534324509e01e5b8,GABA OPTICAL CORNER,C2036G0010,31.12549514,76.11891322
5e50f047534324509e01e5b9,THEREJA OPTICAL,C2036T0002,30.70124173,76.22977537
5e510104534324509e01e5bb,VIJAY OPTICALS (GARHSHANKAR),C2036V0007,31.217079,76.14290905
5e5108bf534324509e01e5bc,BHALLA OPTICIANS,C2327B0006,26.44976844,80.3032726
5e5113d8534324509e01e5bf,BHATIA OPTICALS   PPLP,C2036B0044,31.36851706,76.03811871
5e5375d8534324509e01e5c5,GEORGE VISION,C2008G0242,13.03801146,80.1625257
5e5376f4534324509e01e5c6,COMFORT GLASSES,C2021A0047,18.56079951,73.81249577
5e53aecd534324509e01e5cf,SHAPE MAKER ,C2001S0627,19.12192823,72.84580216
5e54b13ba3f28a07537ac278,SONARAM CHOUDRI,C2021S0233,17.67670529,75.90286162
5e54c3f0a3f28a07537ac279,PAUL D OPTICALS,C2003P0248,28.52927167,77.29192833
5e54c70ba3f28a07537ac27b,SHIVAM OPTICALS MEERUT,C2351S0002,28.67275029,77.43101171
5e54d59fa3f28a07537ac27c,GLOBAL OPTIC,C2021G0084,18.59758901,73.90452873
5e54df2d0a1dbf14d3858bd7,ANIL OPTICIANS (VISHRANTWADI),C2021A0029,18.56821863,73.87928579
5e5507c90a1dbf14d3858bda,pankaj,C2032D0018,26.80783447,80.89848027
5e5525e2e1cc8c1ac54512c0,Reetesh jain,C2039M0015,23.25290896,77.430843
5e5644dbe1cc8c1ac54512c4,CHETAN GAMBHIR,C2351E0002,29.02742455,77.68451124
5e5677e7e1cc8c1ac54512c5,Jeetendra Santwani,C2039S0008,23.23131162,77.43331634
5e574f6ae1cc8c1ac54512c6,Naveen Rodrigues,C2005E0238,12.86782515,74.84374344
5e5760a7e1cc8c1ac54512c7,kuldeep Singh,C2328L0002,26.88891948,80.93953516
5e5760a9e1cc8c1ac54512c8,Krishnakumar s h,C2005S0320,12.88524205,74.84794211
5e5772d9e1cc8c1ac54512ce,Mohamad bilal abduljabbar sharif,C2001A0189,13.02968937,77.57069405
5e5779a3e1cc8c1ac54512cf,Sunil,C2047S0003,15.86082602,74.5106845
5e5783eee1cc8c1ac54512d1,Mohan Sukhramdas Jagyasi,C2291S0055,21.17938351,79.09098253
5e579ab0e1cc8c1ac54512d7,Avinash Jyotiba Balap,C2021S0098,18.49026451,73.85418836
5e57c9fd3de4413bd6b1153e,M.Jagadish,C2043A0016,13.72559919,75.47003824
5e58b81b3de4413bd6b11541,NEETA HALDANKAR,C2005S0276,15.50522698,73.95531937
5e58c6123de4413bd6b11543,Singapandi,C2008E0243,13.03963286,80.17008953
5e58c9463de4413bd6b11544,MANGESH S. CHAVAN,C2005S0315,13.02969917,77.57072859
5e58cc9c3de4413bd6b11547,Manoj Pardeshi,C2021S0073,18.50608138,73.80779422
5e58d0f93de4413bd6b11548,ARUN,C2041O0008,13.06233756,77.50586439
5e58fc7a3de4413bd6b1154d,RITURAJ KHANNA,C2034K0007,22.75324934,75.88758394
5e5904c93de4413bd6b1154e,RAGHUVEER NAYAK,C2005S0321,12.86926789,74.8381963
5e5918f13de4413bd6b1154f,Sanjay lodhi,C2351M0001,28.97169599,77.73097415
5e59f6d4a802ba4d28578c3f,Shreyas Subramanyam,C2040S0020,12.92653666,77.56464366
5e5a1fb5a802ba4d28578c43,Venkatesh,C2043K0001,15.35089519,75.14149312
5e5a3dd0a802ba4d28578c45,Tukaram Nayak,C2042S0006,13.67587295,74.71785363
5e5a52cba802ba4d28578c49,NARESH SARAF,C2143S0018,28.58503223,77.07032628
5e5ca23ca802ba4d28578c4e,MOHD IRSHAD,C2003A0327,26.84645525,80.93442321
5e5cb597a802ba4d28578c50,gaurav chauhan,C2038A0025,27.20353799,77.99972579
5e5cc380a802ba4d28578c51,mohammad faizan ahmed,C2001V0246,19.0603718,72.84302674
5e5cc43fa802ba4d28578c52,santosh kumar gupta,C2031A0027,26.91996835,75.8407383
5e5ccf4ca802ba4d28578c53,RAJ KUMAR KAPOOR,C2321M0013,30.3270042,78.05513486
